OID,Lat_DD,Long_DD,Jurisdiction,Juris_ID,Name,Status,Commodity_Code,Commodity_Full_Name,Mined_Quantity,Mine_Type,Last_Year,Permit,URL,Forcing_Features,Feature_References,Feature_Class,Location,County,Landowner,Last_Operator,Start_Date,Peak_Production,Last_Updated
10782,54.67587764,-102.8535059,SK,B-6,Western Nuclear,Abandoned Non-Uranium Sites,"CU,ZN,PB",NULL,NULL,Mine,NULL,NULL,http://www.er.gov.sk.ca/dbsearch/MinDepositQuery/default.aspx?ID=0209,Openings have been secured - unconfined tailings,NULL,A,NULL,NULL,NULL,NULL,NULL,NULL,2012
10783,54.64054226,-102.1911933,SK,B-11,Bearcat Showing and Prospect Shaft,Abandoned Non-Uranium Sites,PY,NULL,NULL,Shaft,NULL,NULL,http://www.er.gov.sk.ca/dbsearch/MinDepositQuery/default.aspx?ID=0160,Openings secured - possible small amount of ARD,NULL,D,NULL,NULL,NULL,NULL,NULL,NULL,2012
10784,54.87835119,-102.1447457,SK,B-28,Cam Option Copper Showing,Abandoned Non-Uranium Sites,CU,NULL,NULL,Showing,NULL,NULL,http://www.er.gov.sk.ca/dbsearch/MinDepositQuery/default.aspx?ID=0301,Exploration trenches - filled,NULL,D,NULL,NULL,NULL,NULL,NULL,NULL,2012
10785,54.72145356,-102.0987441,SK,B-31,SYE/Sunset Exploration Shaft,Abandoned Non-Uranium Sites,AU,NULL,NULL,Shaft,NULL,NULL,http://www.er.gov.sk.ca/dbsearch/MinDepositQuery/default.aspx?ID=0096,Exploration Shaft,NULL,C,NULL,NULL,NULL,NULL,NULL,NULL,2012
10786,54.65894336,-102.0350138,SK,B-34,Birch Lake Mine,Abandoned Non-Uranium Sites,CU,NULL,NULL,Mine,NULL,NULL,http://www.er.gov.sk.ca/dbsearch/MinDepositQuery/default.aspx?ID=0113,Openings secured - possible small amount of ARD,NULL,D,NULL,NULL,NULL,NULL,NULL,NULL,2012
10787,54.71000172,-101.8889016,SK,B-17,Dion Lake Copper Showing and Shaft,Abandoned Non-Uranium Sites,CU,NULL,NULL,"Showing, Shaft",NULL,NULL,http://www.er.gov.sk.ca/dbsearch/MinDepositQuery/default.aspx?ID=0025,Opening secured,NULL,D,NULL,NULL,NULL,NULL,NULL,NULL,2012
10788,54.70482622,-101.9176591,SK,B-35,Henning Maloney Mine,Abandoned Non-Uranium Sites,AU,NULL,NULL,Mine,NULL,NULL,http://www.er.gov.sk.ca/dbsearch/MinDepositQuery/default.aspx?ID=0006,"Opening secured, debris cleaned up",NULL,D,NULL,NULL,NULL,NULL,NULL,NULL,2012
10789,59.45302498,-108.5244052,SK,B-1,"Box, Box Point, Box Adit",Abandoned Non-Uranium Sites,AU,NULL,NULL,Mine,NULL,NULL,http://www.er.gov.sk.ca/dbsearch/MinDepositQuery/default.aspx?ID=1210a,Multiple openings - unconfined tailings,NULL,A,NULL,NULL,NULL,NULL,NULL,NULL,2012
10790,59.44878719,-108.487977,SK,B-27,Athona,Abandoned Non-Uranium Sites,AU,NULL,NULL,Mine,NULL,NULL,http://www.er.gov.sk.ca/dbsearch/MinDepositQuery/default.aspx?ID=1257,Multiple Openings,NULL,C,NULL,NULL,NULL,NULL,NULL,NULL,2012
10791,59.66261514,-108.4905006,SK,B-30,Neely Lake Mine Site,Abandoned Non-Uranium Sites,AU,NULL,NULL,Mine,NULL,NULL,http://www.er.gov.sk.ca/dbsearch/MinDepositQuery/default.aspx?ID=1281,Opening secured,NULL,D,NULL,NULL,NULL,NULL,NULL,NULL,2012
10792,59.46232027,-108.5300952,SK,B-43,Frontier Adit,Abandoned Non-Uranium Sites,AU,NULL,NULL,Adit,NULL,NULL,http://www.er.gov.sk.ca/dbsearch/MinDepositQuery/default.aspx?ID=1211,Opening secured,NULL,D,NULL,NULL,NULL,NULL,NULL,NULL,2012
10793,59.43514066,-108.5147985,SK,B-44,Greenlee Showing,Abandoned Non-Uranium Sites,AU,NULL,NULL,Shaft,NULL,NULL,http://www.er.gov.sk.ca/dbsearch/MinDepositQuery/default.aspx?ID=1212,Opening unsecured,NULL,C,NULL,NULL,NULL,NULL,NULL,NULL,2012
10794,59.3860444,-108.8802068,SK,U-1,Gunnar Mines Ltd. Lake Athabasca,Abandoned Uranium Sites,UR,NULL,NULL,Mine,NULL,NULL,http://www.er.gov.sk.ca/dbsearch/MinDepositQuery/default.aspx?ID=1206,Openings secured - unconfined tailings,NULL,A,NULL,NULL,NULL,NULL,NULL,NULL,2012
10795,59.44603441,-108.8618298,SK,U-2,Gulch Mines Ltd. Lake Athabasca,Abandoned Uranium Sites,UR,NULL,NULL,Mine,NULL,NULL,http://www.er.gov.sk.ca/dbsearch/MinDepositQuery/default.aspx?ID=1221,Unsecured openings,NULL,C,NULL,NULL,NULL,NULL,NULL,NULL,2012
10796,59.51986165,-108.6959553,SK,U-3,"Lorado Mill Site, Nero Lake, Eucana",Abandoned Uranium Sites,NULL,NULL,NULL,Mine,NULL,NULL,NULL,Unconfined tailings,NULL,A,NULL,NULL,NULL,NULL,NULL,NULL,2012
10797,59.62106904,-108.4563739,SK,U-4,Baska Uranium Mine Ltd. Dot Claim mine site Virgin,Abandoned Uranium Sites,UR,NULL,NULL,Mine,NULL,NULL,http://www.er.gov.sk.ca/dbsearch/MinDepositQuery/default.aspx?ID=1292,Openings secured,NULL,D,NULL,NULL,NULL,NULL,NULL,NULL,2012
10798,59.54325865,-108.6688317,SK,U-5,Lake Cinch/Cenex Ltd. Cinch Lake,Abandoned Uranium Sites,UR,NULL,NULL,Mine,NULL,NULL,http://www.er.gov.sk.ca/dbsearch/MinDepositQuery/default.aspx?ID=1425a,"Secured and unsecured openings, elevated gamma",NULL,B,NULL,NULL,NULL,NULL,NULL,NULL,2012
10799,59.57523372,-108.4883156,SK,U-6,Nesbitt-Labine Uranium Mines Ltd. -Eagle mine site,Abandoned Uranium Sites,UR,NULL,NULL,Mine,NULL,NULL,http://www.er.gov.sk.ca/dbsearch/MinDepositQuery/default.aspx?ID=1306,Secured and unsecured openings,NULL,C,NULL,NULL,NULL,NULL,NULL,NULL,2012
10800,59.45803694,-108.433037,SK,U-7,Consolidated Nicholson Mines Ltd.,Abandoned Uranium Sites,UR,NULL,NULL,Mine,NULL,NULL,http://www.er.gov.sk.ca/dbsearch/MinDepositQuery/default.aspx?ID=1264,"Unsecured openings, elevated gamma",NULL,B,NULL,NULL,NULL,NULL,NULL,NULL,2012
10801,59.60880251,-108.640517,SK,U-9,Consolidated Beta Gamma Mines Ltd. Bellegarde Lake,Abandoned Uranium Sites,UR,NULL,NULL,Mine site,NULL,NULL,http://www.er.gov.sk.ca/dbsearch/MinDepositQuery/default.aspx?ID=1394,Unsecured openings,NULL,C,NULL,NULL,NULL,NULL,NULL,NULL,2012
10802,59.49516606,-108.1044924,SK,U-10,Nesbitt-Labine Uranium Mine Ltd. Reed Bay,Abandoned Uranium Sites,UR,NULL,NULL,Mine,NULL,NULL,http://www.er.gov.sk.ca/dbsearch/MinDepositQuery/default.aspx?ID=1280,Unsecured openings,NULL,C,NULL,NULL,NULL,NULL,NULL,NULL,2012
10803,59.57104271,-108.5396892,SK,U-11,"Nesbitt-Labine Uranium Mine Ltd. ABC Mine, Melvill",Abandoned Uranium Sites,UR,NULL,NULL,Mine,NULL,NULL,http://www.er.gov.sk.ca/dbsearch/MinDepositQuery/default.aspx?ID=1359,Unsecured openings,NULL,C,NULL,NULL,NULL,NULL,NULL,NULL,2012
10804,59.58212774,-108.6410702,SK,U-12,Cayzor Athabasca Mine Ltd. Jean Lake,Abandoned Uranium Sites,UR,NULL,NULL,Mine,NULL,NULL,http://www.er.gov.sk.ca/dbsearch/MinDepositQuery/default.aspx?ID=1404,"Unsecured openings, elevated gamma",NULL,B,NULL,NULL,NULL,NULL,NULL,NULL,2012
10805,59.48911094,-108.6771375,SK,U-13,Uranium Ridge Mines Ltd. Milliken Lake road,Abandoned Uranium Sites,UR,NULL,NULL,Mine,NULL,NULL,http://www.er.gov.sk.ca/dbsearch/MinDepositQuery/default.aspx?ID=1229,Secured openings,NULL,D,NULL,NULL,NULL,NULL,NULL,NULL,2012
10806,59.53911148,-108.5549592,SK,U-15,Pitch-Ore Uranium Mines Ltd. Beaverlodge Lake mine,Abandoned Uranium Sites,UR,NULL,NULL,Mine,NULL,NULL,http://www.er.gov.sk.ca/dbsearch/MinDepositQuery/default.aspx?ID=1362,Secured and Unsecured openings,NULL,C,NULL,NULL,NULL,NULL,NULL,NULL,2012
10807,59.50718838,-108.4813587,SK,U-16,"Black Bay Uranium Mines Ltd. Beaverlodge Lake, Mur",Abandoned Uranium Sites,UR,NULL,NULL,Mine,NULL,NULL,http://www.er.gov.sk.ca/dbsearch/MinDepositQuery/default.aspx?ID=1296,Unsecured openings,NULL,C,NULL,NULL,NULL,NULL,NULL,NULL,2012
10808,59.56922231,-108.6921584,SK,U-17,Rix Athabasca Uranium Mines Ltd.  Zone 62,Abandoned Uranium Sites,UR,NULL,NULL,Mine,NULL,NULL,NULL,Unsecured openings,NULL,C,NULL,NULL,NULL,NULL,NULL,NULL,2012
10809,59.56907878,-108.6921682,SK,U-18,Rix Athabasca Uranium Mines Ltd. Smitty Mine,Abandoned Uranium Sites,UR,NULL,NULL,Mine,NULL,NULL,NULL,"Unsecured openings, elevated gamma",NULL,B,NULL,NULL,NULL,NULL,NULL,NULL,2012
10810,59.5299118,-108.4855343,SK,U-19,"Meta Uranium Mines Ltd. Beaverlodge Lake, Umisk Is",Abandoned Uranium Sites,UR,NULL,NULL,Mine,NULL,NULL,http://www.er.gov.sk.ca/dbsearch/MinDepositQuery/default.aspx?ID=1298,Unsecured openings,NULL,C,NULL,NULL,NULL,NULL,NULL,NULL,2012
10811,59.56130647,-108.6757845,SK,U-20,Rix-Athabasca Uranium Mines Ltd. Leonard Mine,Abandoned Uranium Sites,UR,NULL,NULL,Mine,NULL,NULL,http://www.er.gov.sk.ca/dbsearch/MinDepositQuery/default.aspx?ID=0093,Unsecured openings,NULL,C,NULL,NULL,NULL,NULL,NULL,NULL,2012
10812,59.78425156,-109.0987129,SK,U-21,"New Mylamaque Mines Ltd. Tazin Lake, Laird Island",Abandoned Uranium Sites,UR,NULL,NULL,Mine,NULL,NULL,http://www.er.gov.sk.ca/dbsearch/MinDepositQuery/default.aspx?ID=1536,Unsecured openings,NULL,C,NULL,NULL,NULL,NULL,NULL,NULL,2012
10813,59.4900827,-108.6660505,SK,U-22,"Lorado Uranium Mines Ltd. Mine Site, Beaverlodge L",Abandoned Uranium Sites,UR,NULL,NULL,Mine,NULL,NULL,http://www.er.gov.sk.ca/dbsearch/MinDepositQuery/default.aspx?ID=1228,"Unsecured openings, elevated gamma, potential ARD",NULL,B,NULL,NULL,NULL,NULL,NULL,NULL,2012
10814,59.56963831,-108.6646671,SK,U-23,St. Michaels Uranium Mines Ltd. Jean Lake,Abandoned Uranium Sites,UR,NULL,NULL,Mine,NULL,NULL,http://www.er.gov.sk.ca/dbsearch/MinDepositQuery/default.aspx?ID=1409,"Secured openings, elvated gamma",NULL,C,NULL,NULL,NULL,NULL,NULL,NULL,2012
10815,59.79179806,-108.9021095,SK,U-24,"Caba Uranium Mines Ltd. Tazin Lake, Dewdney Island",Abandoned Uranium Sites,UR,NULL,NULL,Mine,NULL,NULL,http://www.er.gov.sk.ca/dbsearch/MinDepositQuery/default.aspx?ID=1546,Unsecured openings,NULL,C,NULL,NULL,NULL,NULL,NULL,NULL,2012
10816,59.72909639,-108.5302409,SK,U-25,Don Henry Mines Ltd. Gatzke Lake,Abandoned Uranium Sites,UR,NULL,NULL,Mine,NULL,NULL,http://www.er.gov.sk.ca/dbsearch/MinDepositQuery/default.aspx?ID=1473,Unsecured Openings,NULL,C,NULL,NULL,NULL,NULL,NULL,NULL,2012
10817,59.58991105,-108.4237815,SK,U-26,"National Exploration Ltd. Keiller Adit, Donaldson ",Abandoned Uranium Sites,UR,NULL,NULL,Mine,NULL,NULL,http://www.er.gov.sk.ca/dbsearch/MinDepositQuery/default.aspx?ID=1307,Secured opening,NULL,D,NULL,NULL,NULL,NULL,NULL,NULL,2012
10818,59.62936665,-108.5882998,SK,U-27,Territorial Uranium Mines Ltd. Coe Lake,Abandoned Uranium Sites,UR,NULL,NULL,Mine,NULL,NULL,http://www.er.gov.sk.ca/dbsearch/MinDepositQuery/default.aspx?ID=1481,Unsecured Openings,NULL,C,NULL,NULL,NULL,NULL,NULL,NULL,2012
10819,59.58304826,-108.4596141,SK,U-28,Beaverlodge-Mickey Lake,Abandoned Uranium Sites,UR,NULL,NULL,Mine,NULL,NULL,NULL,Secured Openings,NULL,D,NULL,NULL,NULL,NULL,NULL,NULL,2012
10820,59.59244147,-108.4356502,SK,U-29,National Exploration Ltd. Pat Claims Donaldson Lak,Abandoned Uranium Sites,UR,NULL,NULL,Mine,NULL,NULL,http://www.er.gov.sk.ca/dbsearch/MinDepositQuery/default.aspx?ID=1319,Secured openings,NULL,D,NULL,NULL,NULL,NULL,NULL,NULL,2012
10821,59.54711406,-108.691717,SK,U-30,Amax Athabasca Uranium Mines Ltd. (Site 1) Rix Roa,Abandoned Uranium Sites,UR,NULL,NULL,Mine,NULL,NULL,NULL,Unsecured Openings,NULL,C,NULL,NULL,NULL,NULL,NULL,NULL,2012
10822,59.44450401,-107.7934947,SK,U-31,Homer Yellowknife Mines Ltd. Mathews Lake,Abandoned Uranium Sites,UR,NULL,NULL,Mine,NULL,NULL,http://www.er.gov.sk.ca/dbsearch/MinDepositQuery/default.aspx?ID=1559,Unsecured Openings,NULL,C,NULL,NULL,NULL,NULL,NULL,NULL,2012
10823,59.53904502,-109.0681572,SK,U-33,Consolidated Beta Gamma Mines Ltd. Tena Claim Lake,Abandoned Uranium Sites,UR,NULL,NULL,Mine,NULL,NULL,http://www.er.gov.sk.ca/dbsearch/MinDepositQuery/default.aspx?ID=1511,Unsecured Openings,NULL,C,NULL,NULL,NULL,NULL,NULL,NULL,2012
10824,59.52936284,-108.8173763,SK,U-35,Jesko Uranium Mine Ltd. Lake Athabasca,Abandoned Uranium Sites,UR,NULL,NULL,Mine,NULL,NULL,http://www.er.gov.sk.ca/dbsearch/MinDepositQuery/default.aspx?ID=1447,Unsecured Openings,NULL,C,NULL,NULL,NULL,NULL,NULL,NULL,2012
10825,59.56130647,-108.6757845,SK,U-37,Rix Athabasca Uranium Mines Ltd. No. 10 Adit,Abandoned Uranium Sites,UR,NULL,NULL,Adit,NULL,NULL,http://www.er.gov.sk.ca/dbsearch/MinDepositQuery/default.aspx?ID=1414,Unsecured Openings,NULL,C,NULL,NULL,NULL,NULL,NULL,NULL,2012
10826,59.57940421,-108.4383233,SK,U-39,Strike Lake Uranium Mines Ltd. Strike Lake,Abandoned Uranium Sites,UR,NULL,NULL,Mine,NULL,NULL,http://www.er.gov.sk.ca/dbsearch/MinDepositQuery/default.aspx?ID=1288,Unsecured opening,NULL,C,NULL,NULL,NULL,NULL,NULL,NULL,2012
10827,59.54187243,-108.6979795,SK,U-40,Amax Athabasca Uranium Mines Ltd. (Site No. 2) Rix,Abandoned Uranium Sites,UR,NULL,NULL,Mine,NULL,NULL,http://www.er.gov.sk.ca/dbsearch/MinDepositQuery/default.aspx?ID=1427,Exploration trenches,NULL,D,NULL,NULL,NULL,NULL,NULL,NULL,2012
10828,59.60130225,-108.7834947,SK,U-41,Pitch-Ore Uranium Mines Ltd. Augier Lake,Abandoned Uranium Sites,UR,NULL,NULL,Mine,NULL,NULL,http://www.er.gov.sk.ca/dbsearch/MinDepositQuery/default.aspx?ID=1451,Unsecured Opening,NULL,C,NULL,NULL,NULL,NULL,NULL,NULL,2012
10829,59.55992087,-108.6716159,SK,U-42,Amax Athabasca Uranium Mines Ltd. (Site No. 3) Rix,Abandoned Uranium Sites,UR,NULL,NULL,Mine,NULL,NULL,http://www.er.gov.sk.ca/dbsearch/MinDepositQuery/default.aspx?ID=1415,Exploration trenches,NULL,D,NULL,NULL,NULL,NULL,NULL,NULL,2012
10830,56.34480493,-104.8254741,SK,B-3,Rottenstone,Abandoned Non-Uranium Sites,NI,NULL,NULL,Mine,NULL,NULL,NULL,Openings secured - unconfined tailings,NULL,A,NULL,NULL,NULL,NULL,NULL,NULL,2012
10831,55.29395915,-105.0046318,SK,B-4,Anglo-Rouyn,Abandoned Non-Uranium Sites,CU,NULL,NULL,Mine,NULL,NULL,http://www.er.gov.sk.ca/dbsearch/MinDepositQuery/default.aspx?ID=0732,Multiple openings - unconfined tailings,NULL,A,NULL,NULL,NULL,NULL,NULL,NULL,2012
10832,54.71990261,-102.2711841,SK,B-7,Prince Albert Mine,Abandoned Non-Uranium Sites,AU,NULL,NULL,Mine,NULL,NULL,http://www.er.gov.sk.ca/dbsearch/MinDepositQuery/default.aspx?ID=0086,Multiple openings,NULL,C,NULL,NULL,NULL,NULL,NULL,NULL,2012
10833,54.71200721,-102.1039876,SK,B-8,Amisk Syndicate Mine,Abandoned Non-Uranium Sites,AU,NULL,NULL,Mine,NULL,NULL,http://www.er.gov.sk.ca/dbsearch/MinDepositQuery/default.aspx?ID=0104,Openings secured,NULL,D,NULL,NULL,NULL,NULL,NULL,NULL,2012
10834,54.7748101,-102.1906286,SK,B-9,Graham Mine - Shaft and No. 3 deposit,Abandoned Non-Uranium Sites,AU,NULL,NULL,Shaft,NULL,NULL,http://www.er.gov.sk.ca/dbsearch/MinDepositQuery/default.aspx?ID=0296,Openings - condition unknown,NULL,C,NULL,NULL,NULL,NULL,NULL,NULL,2012
10835,54.70693572,-102.2802527,SK,B-15,Amisk (Beaver) Gold Mines,Abandoned Non-Uranium Sites,AU,NULL,NULL,Mine,NULL,NULL,NULL,Openings secured,NULL,C,NULL,NULL,NULL,NULL,NULL,NULL,2012
10836,54.71075537,-102.2554792,SK,B-16,Laurel Lake North Gold Zone,Abandoned Non-Uranium Sites,AU,NULL,NULL,Mine,NULL,NULL,http://www.er.gov.sk.ca/dbsearch/MinDepositQuery/default.aspx?ID=2207,Adit secured - debris and waste rock,NULL,C,NULL,NULL,NULL,NULL,NULL,NULL,2012
10837,54.67844563,-102.0296635,SK,B-18,Flexar Mine,Abandoned Non-Uranium Sites,CU,NULL,NULL,Mine,NULL,NULL,http://www.er.gov.sk.ca/dbsearch/MinDepositQuery/default.aspx?ID=0117,Openings secure - waste rock,NULL,C,NULL,NULL,NULL,NULL,NULL,NULL,2012
10838,54.69190372,-102.2714496,SK,B-19,Beaver Mine,Abandoned Non-Uranium Sites,AU,NULL,NULL,Mine,NULL,NULL,http://www.er.gov.sk.ca/dbsearch/MinDepositQuery/default.aspx?ID=0098,Openings - condition unknown,NULL,C,NULL,NULL,NULL,NULL,NULL,NULL,2012
10839,54.67062227,-102.3087566,SK,B-20,"Waverly Island - Trench 'A', Pit 'C'",Abandoned Non-Uranium Sites,CU,NULL,NULL,Trench,NULL,NULL,http://www.er.gov.sk.ca/dbsearch/MinDepositQuery/default.aspx?ID=0093,Exploration trenches,NULL,D,NULL,NULL,NULL,NULL,NULL,NULL,2012
10840,55.413124,-104.8143425,SK,B-22,Preview Lake,Abandoned Non-Uranium Sites,AU,NULL,NULL,Mine,NULL,NULL,http://www.er.gov.sk.ca/dbsearch/MinDepositQuery/default.aspx?ID=0754,Open Adit - Debris,NULL,C,NULL,NULL,NULL,NULL,NULL,NULL,2012
10841,54.6741582,-102.2927455,SK,B-24,Hannay (Bessie Island) Deposit,Abandoned Non-Uranium Sites,ZN,NULL,NULL,Mine,NULL,NULL,NULL,Exploration trenches,NULL,D,NULL,NULL,NULL,NULL,NULL,NULL,2012
10842,54.66502711,-102.3130662,SK,B-25,Sonara Deposit,Abandoned Non-Uranium Sites,AU,NULL,NULL,Mine,NULL,NULL,http://www.er.gov.sk.ca/dbsearch/MinDepositQuery/default.aspx?ID=0094,Exploration trenches,NULL,D,NULL,NULL,NULL,NULL,NULL,NULL,2012
10843,55.43701463,-104.13932,SK,B-26,Pitching Lake,Abandoned Non-Uranium Sites,CU,NULL,NULL,Mine,NULL,NULL,http://www.er.gov.sk.ca/dbsearch/MinDepositQuery/default.aspx?ID=0801,Openings unsecured - debris,NULL,C,NULL,NULL,NULL,NULL,NULL,NULL,2012
10844,54.65090859,-102.1492393,SK,B-33,Lucky Strike,Abandoned Non-Uranium Sites,NULL,NULL,NULL,Mine,NULL,NULL,http://www.er.gov.sk.ca/dbsearch/MinDepositQuery/default.aspx?ID=0102,Exploration trenches,NULL,D,NULL,NULL,NULL,NULL,NULL,NULL,2012
10845,54.88451074,-102.1991666,SK,B-36,Otonadah Lake Copper Showing and Exploration Shaft,Abandoned Non-Uranium Sites,CU,NULL,NULL,"Showing, Shaft",NULL,NULL,http://www.er.gov.sk.ca/dbsearch/MinDepositQuery/default.aspx?ID=0302,Opening -  unsecured,NULL,C,NULL,NULL,NULL,NULL,NULL,NULL,2012
10846,54.7269411,-102.0684669,SK,B-37,Star ,Abandoned Non-Uranium Sites,PY,NULL,NULL,Occurrence,NULL,NULL,http://www.er.gov.sk.ca/dbsearch/MinDepositQuery/default.aspx?ID=0165,Exploration,NULL,D,NULL,NULL,NULL,NULL,NULL,NULL,2012
10847,54.65933522,-102.2533179,SK,B-38,"Ace Deposit - NW Workings, Hill Top Workings",Abandoned Non-Uranium Sites,ZN,NULL,NULL,Mine,NULL,NULL,http://www.er.gov.sk.ca/dbsearch/MinDepositQuery/default.aspx?ID=0171,Exploration trenches,NULL,D,NULL,NULL,NULL,NULL,NULL,NULL,2012
10848,55.42340179,-104.4804325,SK,U-14,La Ronge Uranium Mines Ltd. Drope-Nistowaik Lake A,Abandoned Uranium Sites,UR,NULL,NULL,Mine,NULL,NULL,http://www.er.gov.sk.ca/dbsearch/MinDepositQuery/default.aspx?ID=0805,Unsecured Openings,NULL,C,NULL,NULL,NULL,NULL,NULL,NULL,2012
10849,55.21396296,-104.2504325,SK,U-32,Jahala Lake Uranium Mines Lee Lake,Abandoned Uranium Sites,UR,NULL,NULL,Mine,NULL,NULL,http://www.er.gov.sk.ca/dbsearch/MinDepositQuery/default.aspx?ID=0720,Unsecured Openings,NULL,C,NULL,NULL,NULL,NULL,NULL,NULL,2012
10850,59.21051761,-105.445148,SK,U-36,Nisto Mines Ltd. Black Lake,Abandoned Uranium Sites,UR,NULL,NULL,Mine,NULL,NULL,http://www.er.gov.sk.ca/dbsearch/MinDepositQuery/default.aspx?ID=1621,Secured Openings,NULL,D,NULL,NULL,NULL,NULL,NULL,NULL,2012
10851,54.5849118,-101.9962634,SK,B-5,Coronation Mine,Abandoned Non-Uranium Sites,CU,NULL,NULL,Mine,NULL,NULL,http://www.er.gov.sk.ca/dbsearch/MinDepositQuery/default.aspx?ID=0023,Openings secured - potential tailings,NULL,B,NULL,NULL,NULL,NULL,NULL,NULL,2012
10852,54.72640042,-101.9144401,SK,B-12,Newcor Mine,Abandoned Non-Uranium Sites,AU,NULL,NULL,Mine,NULL,NULL,http://www.er.gov.sk.ca/dbsearch/MinDepositQuery/default.aspx?ID=0005,"Openings secure - , debris",NULL,D,NULL,NULL,NULL,NULL,NULL,NULL,2012
10853,54.71673309,-101.9066648,SK,B-13,Vista (Bootleg) Mine - Decline and tailings area,Abandoned Non-Uranium Sites,AU,NULL,NULL,Decline,NULL,NULL,http://www.er.gov.sk.ca/dbsearch/MinDepositQuery/default.aspx?ID=0011,"Openings secure - tailings present, debris",NULL,B,NULL,NULL,NULL,NULL,NULL,NULL,2012
10854,54.70485593,-101.9465362,SK,B-23,Wekatch Gold Mines,Abandoned Non-Uranium Sites,AU,NULL,NULL,Mine,NULL,NULL,http://www.er.gov.sk.ca/dbsearch/MinDepositQuery/default.aspx?ID=0021,Opening secure,NULL,D,NULL,NULL,NULL,NULL,NULL,NULL,2012
10855,54.68380476,-101.8834869,SK,B-29,Phantom Lake Mine,Abandoned Non-Uranium Sites,AU,NULL,NULL,Mine,NULL,NULL,http://www.er.gov.sk.ca/dbsearch/MinDepositQuery/default.aspx?ID=0009,Openings unknown,NULL,C,NULL,NULL,NULL,NULL,NULL,NULL,2012
10856,59.45150938,-108.537773,SK,B-45,Gauthier Shaft,Abandoned Non-Uranium Sites,AU,NULL,NULL,Mine,NULL,NULL,http://www.er.gov.sk.ca/dbsearch/MinDepositQuery/default.aspx?ID=1210b,Opening unsecured,NULL,C,NULL,NULL,NULL,NULL,NULL,NULL,2012
10857,59.30686568,-106.5614623,SK,B-46,Ella Showing,Abandoned Non-Uranium Sites,AU,NULL,NULL,Shaft,NULL,NULL,http://www.er.gov.sk.ca/dbsearch/MinDepositQuery/default.aspx?ID=1574,Opening secured,NULL,D,NULL,NULL,NULL,NULL,NULL,NULL,2012
10858,59.30439404,-106.5495634,SK,B-47,Concession No. 5,Abandoned Non-Uranium Sites,AU,NULL,NULL,Shaft,NULL,NULL,http://www.er.gov.sk.ca/dbsearch/MinDepositQuery/default.aspx?ID=2174,Opening secured,NULL,D,NULL,NULL,NULL,NULL,NULL,NULL,2012
10859,54.7797922,-102.2723469,SK,B-48,Grassy Lake Exploration Shaft,Abandoned Non-Uranium Sites,AU,NULL,NULL,Shaft,NULL,NULL,http://www.er.gov.sk.ca/dbsearch/MinDepositQuery/default.aspx?ID=0312,Opening unsecured,NULL,C,NULL,NULL,NULL,NULL,NULL,NULL,2012
10860,49.06558161,-102.675104,SK,2,Unknown,NULL,CL,NULL,NULL,Unknown,NULL,NULL,NULL,NULL,Abandoned Mines Remedial Action Program 1989 Annual Report,D*,NULL,NULL,NULL,NULL,NULL,NULL,2012
10861,49.06919547,-102.675106,SK,3,Unknown,NULL,CL,NULL,NULL,Unknown,NULL,NULL,NULL,NULL,Abandoned Mines Remedial Action Program 1989 Annual Report,D*,NULL,NULL,NULL,NULL,NULL,NULL,2012
10862,49.02319516,-102.689345,SK,6,Unknown,NULL,CL,NULL,NULL,Unknown,NULL,NULL,NULL,NULL,Abandoned Mines Remedial Action Program 1989 Annual Report,D*,NULL,NULL,NULL,NULL,NULL,NULL,2012
10863,49.03797662,-102.756539,SK,7,Unknown,NULL,CL,NULL,NULL,Unknown,NULL,NULL,NULL,NULL,Abandoned Mines Remedial Action Program 1989 Annual Report,D*,NULL,NULL,NULL,NULL,NULL,NULL,2012
10864,49.04731528,-102.770618,SK,8,Unknown,NULL,CL,NULL,NULL,Unknown,NULL,NULL,NULL,NULL,Abandoned Mines Remedial Action Program 1989 Annual Report,D*,NULL,NULL,NULL,NULL,NULL,NULL,2012
10865,49.05812888,-102.725844,SK,10,Unknown,NULL,CL,NULL,NULL,Unknown,NULL,NULL,NULL,NULL,Abandoned Mines Remedial Action Program 1989 Annual Report,D*,NULL,NULL,NULL,NULL,NULL,NULL,2012
10866,49.0710764,-102.773288,SK,13,Kelly Coal Mining Company,NULL,CL,NULL,NULL,Unknown,NULL,NULL,NULL,Minor subsedence,Abandoned Mines Remedial Action Program 1989 Annual Report,D*,NULL,NULL,NULL,NULL,NULL,NULL,2012
10867,49.06204074,-102.770535,SK,14,Unknown,NULL,CL,NULL,NULL,Unknown,NULL,NULL,NULL,NULL,Abandoned Mines Remedial Action Program 1989 Annual Report,D*,NULL,NULL,NULL,NULL,NULL,NULL,2012
10868,49.06204074,-102.78705,SK,15,Unknown,NULL,CL,NULL,NULL,Unknown,NULL,NULL,NULL,NULL,Abandoned Mines Remedial Action Program 1989 Annual Report,D*,NULL,NULL,NULL,NULL,NULL,NULL,2012
10869,49.06745854,-102.801287,SK,20,Old Mac Coal Company,NULL,CL,NULL,NULL,Unknown,NULL,NULL,NULL,NULL,Abandoned Mines Remedial Action Program 1989 Annual Report,D*,NULL,NULL,NULL,NULL,NULL,NULL,2012
10870,49.07676119,-102.793011,SK,21,Unknown,NULL,CL,NULL,NULL,Unknown,NULL,NULL,NULL,NULL,Abandoned Mines Remedial Action Program 1989 Annual Report,D*,NULL,NULL,NULL,NULL,NULL,NULL,2012
10871,49.07677119,-102.748187,SK,23,Unknown,NULL,CL,NULL,NULL,Unknown,NULL,NULL,NULL,NULL,Abandoned Mines Remedial Action Program 1989 Annual Report,D*,NULL,NULL,NULL,NULL,NULL,NULL,2012
10872,49.0876008,-102.731299,SK,26,Unknown,NULL,CL,NULL,NULL,Unknown,NULL,NULL,NULL,NULL,Abandoned Mines Remedial Action Program 1989 Annual Report,D*,NULL,NULL,NULL,NULL,NULL,NULL,2012
10873,49.0767432,-102.719884,SK,27,J. Mitchell Mine,NULL,CL,NULL,NULL,Unknown,NULL,NULL,NULL,NULL,Abandoned Mines Remedial Action Program 1989 Annual Report,D*,NULL,NULL,NULL,NULL,NULL,NULL,2012
10874,49.0875868,-102.719888,SK,28,Mike Rohatyn (Rock Springs) Mine,NULL,CL,NULL,NULL,Unknown,NULL,NULL,NULL,NULL,Abandoned Mines Remedial Action Program 1989 Annual Report,D*,NULL,NULL,NULL,NULL,NULL,NULL,2012
10875,49.0875868,-102.71438,SK,29,Matheson and Ulrich (Banner) Mine,NULL,CL,NULL,NULL,Unknown,NULL,NULL,NULL,NULL,Abandoned Mines Remedial Action Program 1989 Annual Report,D*,NULL,NULL,NULL,NULL,NULL,NULL,2012
10876,49.08577886,-102.706118,SK,30,Lignite Coal Mines,NULL,CL,NULL,NULL,Unknown,NULL,NULL,NULL,NULL,Abandoned Mines Remedial Action Program 1989 Annual Report,D*,NULL,NULL,NULL,NULL,NULL,NULL,2012
10877,49.15405535,-102.787241,SK,36,Giem Mine,NULL,CL,NULL,NULL,Unknown,NULL,NULL,NULL,NULL,Abandoned Mines Remedial Action Program 1989 Annual Report,D*,NULL,NULL,NULL,NULL,NULL,NULL,2012
10878,49.04346242,-102.826473,SK,37,Olson and May Mine,NULL,CL,NULL,NULL,Unknown,NULL,NULL,NULL,NULL,Abandoned Mines Remedial Action Program 1989 Annual Report,D*,NULL,NULL,NULL,NULL,NULL,NULL,2012
10879,49.03985355,-102.843342,SK,40,A.W. Jahn Mine,NULL,CL,NULL,NULL,Unknown,NULL,NULL,NULL,NULL,Abandoned Mines Remedial Action Program 1989 Annual Report,D*,NULL,NULL,NULL,NULL,NULL,NULL,2012
10880,49.0657156,-102.921481,SK,47,Unknown,NULL,CL,NULL,NULL,Unknown,NULL,NULL,NULL,NULL,Abandoned Mines Remedial Action Program 1989 Annual Report,D*,NULL,NULL,NULL,NULL,NULL,NULL,2012
10881,49.06932947,-102.921483,SK,48,Unknown,NULL,CL,NULL,NULL,Unknown,NULL,NULL,NULL,NULL,Abandoned Mines Remedial Action Program 1989 Annual Report,D*,NULL,NULL,NULL,NULL,NULL,NULL,2012
10882,49.09881938,-102.899153,SK,49,W.D. Nblets Mine,NULL,CL,NULL,NULL,Unknown,NULL,NULL,NULL,NULL,Abandoned Mines Remedial Action Program 1989 Annual Report,D*,NULL,NULL,NULL,NULL,NULL,NULL,2012
10883,49.09881938,-102.899153,SK,50,W.G. McLean Mine,NULL,CL,NULL,NULL,Unknown,NULL,NULL,NULL,NULL,Abandoned Mines Remedial Action Program 1989 Annual Report,D*,NULL,NULL,NULL,NULL,NULL,NULL,2012
10884,49.10243425,-102.893645,SK,51,Unknown,NULL,CL,NULL,NULL,Unknown,NULL,NULL,NULL,NULL,Abandoned Mines Remedial Action Program 1989 Annual Report,D*,NULL,NULL,NULL,NULL,NULL,NULL,2012
10885,49.10998697,-102.943945,SK,56,Unknown,NULL,CL,NULL,NULL,Unknown,NULL,NULL,NULL,NULL,Abandoned Mines Remedial Action Program 1989 Annual Report,D*,NULL,NULL,NULL,NULL,NULL,NULL,2012
10886,49.10988698,-102.921511,SK,57,Unknown,NULL,CL,NULL,NULL,Unknown,NULL,NULL,NULL,NULL,Abandoned Mines Remedial Action Program 1989 Annual Report,D*,NULL,NULL,NULL,NULL,NULL,NULL,2012
10887,49.10629311,-102.882585,SK,58,Unknown,NULL,CL,NULL,NULL,Unknown,NULL,NULL,NULL,NULL,Abandoned Mines Remedial Action Program 1989 Annual Report,D*,NULL,NULL,NULL,NULL,NULL,NULL,2012
10888,49.14655063,-102.848888,SK,66,Unknown,NULL,CL,NULL,NULL,Unknown,NULL,NULL,NULL,NULL,Abandoned Mines Remedial Action Program 1989 Annual Report,D*,NULL,NULL,NULL,NULL,NULL,NULL,2012
10889,49.14289676,-102.820959,SK,67,Unknown,NULL,CL,NULL,NULL,Unknown,NULL,NULL,NULL,NULL,Abandoned Mines Remedial Action Program 1989 Annual Report,D*,NULL,NULL,NULL,NULL,NULL,NULL,2012
10890,49.07692619,-103.039234,SK,77,Joe Tessier Mine,NULL,CL,NULL,NULL,Unknown,NULL,NULL,NULL,NULL,Abandoned Mines Remedial Action Program 1989 Annual Report,D*,NULL,NULL,NULL,NULL,NULL,NULL,2012
10891,49.09878739,-102.960756,SK,85,James Parkinson Mine,NULL,CL,NULL,NULL,Unknown,NULL,NULL,NULL,NULL,Abandoned Mines Remedial Action Program 1989 Annual Report,D*,NULL,NULL,NULL,NULL,NULL,NULL,2012
10892,49.09162965,-102.983129,SK,91,John Joyce Mine,NULL,CL,NULL,NULL,Unknown,NULL,NULL,NULL,NULL,Abandoned Mines Remedial Action Program 1989 Annual Report,D*,NULL,NULL,NULL,NULL,NULL,NULL,2012
10893,49.09527551,-103.027903,SK,93,Carl S. Peterson Mine,NULL,CL,NULL,NULL,Unknown,NULL,NULL,NULL,NULL,Abandoned Mines Remedial Action Program 1989 Annual Report,D*,NULL,NULL,NULL,NULL,NULL,NULL,2012
10894,49.09888938,-103.027904,SK,94,James Parkinson Mine,NULL,CL,NULL,NULL,Unknown,NULL,NULL,NULL,NULL,Abandoned Mines Remedial Action Program 1989 Annual Report,D*,NULL,NULL,NULL,NULL,NULL,NULL,2012
10895,49.11722671,-103.022327,SK,96,W.A. Crawbarger Mine,NULL,CL,NULL,NULL,Unknown,NULL,NULL,NULL,NULL,Abandoned Mines Remedial Action Program 1989 Annual Report,D*,NULL,NULL,NULL,NULL,NULL,NULL,2012
10896,49.11001797,-103.010973,SK,98,H.E. Symons Mine,NULL,CL,NULL,NULL,Unknown,NULL,NULL,NULL,NULL,Abandoned Mines Remedial Action Program 1989 Annual Report,D*,NULL,NULL,NULL,NULL,NULL,NULL,2012
10897,49.11363184,-102.994441,SK,100,Unknown,NULL,CL,NULL,NULL,Unknown,NULL,NULL,NULL,NULL,Abandoned Mines Remedial Action Program 1989 Annual Report,D*,NULL,NULL,NULL,NULL,NULL,NULL,2012
10898,49.11724671,-103.005464,SK,102,Unknown,NULL,CL,NULL,NULL,Unknown,NULL,NULL,NULL,NULL,Abandoned Mines Remedial Action Program 1989 Annual Report,D*,NULL,NULL,NULL,NULL,NULL,NULL,2012
10899,49.1283133,-102.972026,SK,112,Unknown,NULL,CL,NULL,NULL,Unknown,NULL,NULL,NULL,NULL,Abandoned Mines Remedial Action Program 1989 Annual Report,D*,NULL,NULL,NULL,NULL,NULL,NULL,2012
10900,49.12472043,-103.055749,SK,114,J.S. Mork Mine,NULL,CL,NULL,NULL,Unknown,NULL,NULL,NULL,NULL,Abandoned Mines Remedial Action Program 1989 Annual Report,D*,NULL,NULL,NULL,NULL,NULL,NULL,2012
10901,49.12472043,-103.050237,SK,115,M.L. Ross Mine,NULL,CL,NULL,NULL,Unknown,NULL,NULL,NULL,NULL,Abandoned Mines Remedial Action Program 1989 Annual Report,D*,NULL,NULL,NULL,NULL,NULL,NULL,2012
10902,49.1283543,-103.072624,SK,117,Unknown,NULL,CL,NULL,NULL,Unknown,NULL,NULL,NULL,NULL,Abandoned Mines Remedial Action Program 1989 Annual Report,D*,NULL,NULL,NULL,NULL,NULL,NULL,2012
10903,49.14668063,-103.010987,SK,121,A. Moirhead and McClary Mine,NULL,CL,NULL,NULL,Unknown,NULL,NULL,NULL,NULL,Abandoned Mines Remedial Action Program 1989 Annual Report,D*,NULL,NULL,NULL,NULL,NULL,NULL,2012
10904,49.15057848,-103.010997,SK,122,Black Lump Coal Mine,NULL,CL,NULL,NULL,Unknown,NULL,NULL,NULL,NULL,Abandoned Mines Remedial Action Program 1989 Annual Report,D*,NULL,NULL,NULL,NULL,NULL,NULL,2012
10905,49.16145408,-103.061621,SK,126,Unknown,NULL,CL,NULL,NULL,Unknown,NULL,NULL,NULL,NULL,Abandoned Mines Remedial Action Program 1989 Annual Report,D*,NULL,NULL,NULL,NULL,NULL,NULL,2012
10906,49.08674083,-103.094983,SK,128,G. Munshaw and G. Cundall Mine,NULL,CL,NULL,NULL,Unknown,NULL,NULL,NULL,NULL,Abandoned Mines Remedial Action Program 1989 Annual Report,D*,NULL,NULL,NULL,NULL,NULL,NULL,2012
10907,49.12504642,-103.642644,SK,130,Johnson and Garrison Mine,NULL,CL,NULL,NULL,Unknown,NULL,NULL,NULL,NULL,Abandoned Mines Remedial Action Program 1989 Annual Report,D*,NULL,NULL,NULL,NULL,NULL,NULL,2012
10908,49.40076627,-103.631916,SK,131,Reidel Brothers Mine,NULL,CL,NULL,NULL,Unknown,NULL,NULL,NULL,NULL,Abandoned Mines Remedial Action Program 1989 Annual Report,D*,NULL,NULL,NULL,NULL,NULL,NULL,2012
10909,49.19530184,-104.463924,SK,144,B. Lid Mine,NULL,CL,NULL,NULL,Unknown,NULL,NULL,NULL,NULL,Abandoned Mines Remedial Action Program 1989 Annual Report,D*,NULL,NULL,NULL,NULL,NULL,NULL,2012
10910,49.2098663,-104.800061,SK,150,A. Hewer Mine,NULL,CL,NULL,NULL,Unknown,NULL,NULL,NULL,NULL,Abandoned Mines Remedial Action Program 1989 Annual Report,D*,NULL,NULL,NULL,NULL,NULL,NULL,2012
10911,49.2098663,-104.794539,SK,151,R. Freeman Mine,NULL,CL,NULL,NULL,Unknown,NULL,NULL,NULL,NULL,Abandoned Mines Remedial Action Program 1989 Annual Report,D*,NULL,NULL,NULL,NULL,NULL,NULL,2012
10912,49.03758163,-104.999966,SK,158,Lapointe Mine,NULL,CL,NULL,NULL,Unknown,NULL,NULL,NULL,NULL,Abandoned Mines Remedial Action Program 1989 Annual Report,D*,NULL,NULL,NULL,NULL,NULL,NULL,2012
10913,49.0903097,-105.002676,SK,160,L.E. Anderson Mine,NULL,CL,NULL,NULL,Unknown,NULL,NULL,NULL,NULL,Abandoned Mines Remedial Action Program 1989 Annual Report,D*,NULL,NULL,NULL,NULL,NULL,NULL,2012
10914,49.27173302,-105.013047,SK,165,H. Ott and W. Coubrough Mine,NULL,CL,NULL,NULL,Unknown,NULL,NULL,NULL,NULL,Abandoned Mines Remedial Action Program 1989 Annual Report,D*,NULL,NULL,NULL,NULL,NULL,NULL,2012
10915,49.34082448,-105.052101,SK,171,John Cummings Mine,NULL,CL,NULL,NULL,Unknown,NULL,NULL,NULL,NULL,Abandoned Mines Remedial Action Program 1989 Annual Report,D*,NULL,NULL,NULL,NULL,NULL,NULL,2012
10916,49.35545294,-105.024156,SK,174,Thomas How Mine,NULL,CL,NULL,NULL,Unknown,NULL,NULL,NULL,NULL,Abandoned Mines Remedial Action Program 1989 Annual Report,D*,NULL,NULL,NULL,NULL,NULL,NULL,2012
10917,49.0520711,-105.200211,SK,178,"Gerde, March and Skundeberg Mine",NULL,CL,NULL,NULL,Unknown,NULL,NULL,NULL,NULL,Abandoned Mines Remedial Action Program 1989 Annual Report,D*,NULL,NULL,NULL,NULL,NULL,NULL,2012
10918,49.06677856,-105.155671,SK,180,Black Diamond Mine,NULL,CL,NULL,NULL,Unknown,NULL,NULL,NULL,NULL,Abandoned Mines Remedial Action Program 1989 Annual Report,D*,NULL,NULL,NULL,NULL,NULL,NULL,2012
10919,49.11037396,-105.177925,SK,182,H.J. Granville Mine,NULL,CL,NULL,NULL,Unknown,NULL,NULL,NULL,NULL,Abandoned Mines Remedial Action Program 1989 Annual Report,D*,NULL,NULL,NULL,NULL,NULL,NULL,2012
10920,49.11037396,-105.177925,SK,183,B. Long Mine,NULL,CL,NULL,NULL,Unknown,NULL,NULL,NULL,NULL,Abandoned Mines Remedial Action Program 1989 Annual Report,D*,NULL,NULL,NULL,NULL,NULL,NULL,2012
10921,49.14865755,-105.230756,SK,184,R.M. McClinton Mine,NULL,CL,NULL,NULL,Unknown,NULL,NULL,NULL,NULL,Abandoned Mines Remedial Action Program 1989 Annual Report,D*,NULL,NULL,NULL,NULL,NULL,NULL,2012
10922,49.5082263,-105.34359,SK,192,Viceroy Coal Mining Company,NULL,CL,NULL,NULL,Unknown,NULL,NULL,NULL,NULL,Abandoned Mines Remedial Action Program 1989 Annual Report,D*,NULL,NULL,NULL,NULL,NULL,NULL,2012
10923,49.5082263,-105.338035,SK,193,William Jones Mine,NULL,CL,NULL,NULL,Unknown,NULL,NULL,NULL,NULL,Abandoned Mines Remedial Action Program 1989 Annual Report,D*,NULL,NULL,NULL,NULL,NULL,NULL,2012
10924,49.09611248,-105.422919,SK,194,F. Allard Mine,NULL,CL,NULL,NULL,Unknown,NULL,NULL,NULL,NULL,Abandoned Mines Remedial Action Program 1989 Annual Report,D*,NULL,NULL,NULL,NULL,NULL,NULL,2012
10925,49.1827443,-105.424541,SK,198,J.J. Mathieson Mine,NULL,CL,NULL,NULL,Unknown,NULL,NULL,NULL,NULL,Abandoned Mines Remedial Action Program 1989 Annual Report,D*,NULL,NULL,NULL,NULL,NULL,NULL,2012
10926,49.19727476,-105.379723,SK,200,Harold Robinson Mine,NULL,CL,NULL,NULL,Unknown,NULL,NULL,NULL,NULL,Abandoned Mines Remedial Action Program 1989 Annual Report,D*,NULL,NULL,NULL,NULL,NULL,NULL,2012
10927,49.28256362,-105.489194,SK,210,C.H. Brenner Mine,NULL,CL,NULL,NULL,Unknown,NULL,NULL,NULL,NULL,Abandoned Mines Remedial Action Program 1989 Annual Report,D*,NULL,NULL,NULL,NULL,NULL,NULL,2012
10928,49.44644958,-105.422122,SK,212,R.J. Bain Mine,NULL,CL,NULL,NULL,Unknown,NULL,NULL,NULL,NULL,Abandoned Mines Remedial Action Program 1989 Annual Report,D*,NULL,NULL,NULL,NULL,NULL,NULL,2012
10929,49.32811595,-105.536782,SK,221,Leon Lautier Mine,NULL,CL,NULL,NULL,Unknown,NULL,NULL,NULL,NULL,Abandoned Mines Remedial Action Program 1989 Annual Report,D*,NULL,NULL,NULL,NULL,NULL,NULL,2012
10930,49.380918,-105.618072,SK,226,James Salaba Mine,NULL,CL,NULL,NULL,Unknown,NULL,NULL,NULL,NULL,Abandoned Mines Remedial Action Program 1989 Annual Report,D*,NULL,NULL,NULL,NULL,NULL,NULL,2012
10931,49.38453287,-105.623614,SK,227,Duppereault Brothers Mine,NULL,CL,NULL,NULL,Unknown,NULL,NULL,NULL,NULL,Abandoned Mines Remedial Action Program 1989 Annual Report,D*,NULL,NULL,NULL,NULL,NULL,NULL,2012
10932,49.5028345,-105.604086,SK,230,J. Ttownsend Mine,NULL,CL,NULL,NULL,Unknown,NULL,NULL,NULL,NULL,Abandoned Mines Remedial Action Program 1989 Annual Report,D*,NULL,NULL,NULL,NULL,NULL,NULL,2012
10933,49.5028655,-105.626494,SK,235,J. and R. Wilhelm Mine,NULL,CL,NULL,NULL,Unknown,NULL,NULL,NULL,NULL,Abandoned Mines Remedial Action Program 1989 Annual Report,D*,NULL,NULL,NULL,NULL,NULL,NULL,2012
10934,49.59012027,-105.585951,SK,237,Mrs. Mary Emery Mine,NULL,CL,NULL,NULL,Unknown,NULL,NULL,NULL,NULL,Abandoned Mines Remedial Action Program 1989 Annual Report,D*,NULL,NULL,NULL,NULL,NULL,NULL,2012
10935,49.59008727,-105.608571,SK,243,A.L. Stirling Mine,NULL,CL,NULL,NULL,Unknown,NULL,NULL,NULL,NULL,Abandoned Mines Remedial Action Program 1989 Annual Report,D*,NULL,NULL,NULL,NULL,NULL,NULL,2012
10936,49.59911694,-105.600228,SK,246,L. Sanftleben Mine,NULL,CL,NULL,NULL,Unknown,NULL,NULL,NULL,NULL,Abandoned Mines Remedial Action Program 1989 Annual Report,D*,NULL,NULL,NULL,NULL,NULL,NULL,2012
10937,49.32997488,-105.718823,SK,255,R.G. Anderson Mine,NULL,CL,NULL,NULL,Unknown,NULL,NULL,NULL,NULL,Abandoned Mines Remedial Action Program 1989 Annual Report,D*,NULL,NULL,NULL,NULL,NULL,NULL,2012
10938,49.37175834,-105.671307,SK,256,G. LaCerte Mine,NULL,CL,NULL,NULL,Unknown,NULL,NULL,NULL,NULL,Abandoned Mines Remedial Action Program 1989 Annual Report,D*,NULL,NULL,NULL,NULL,NULL,NULL,2012
10939,49.81744784,-105.735941,SK,267,V.B. Nelson Mine,NULL,CL,NULL,NULL,Unknown,NULL,NULL,NULL,NULL,Abandoned Mines Remedial Action Program 1989 Annual Report,D*,NULL,NULL,NULL,NULL,NULL,NULL,2012
10940,49.86665301,-105.676566,SK,271,Howe and Findlay Mine,NULL,CL,NULL,NULL,Unknown,NULL,NULL,NULL,NULL,Abandoned Mines Remedial Action Program 1989 Annual Report,D*,NULL,NULL,NULL,NULL,NULL,NULL,2012
10941,49.87958653,-105.74556,SK,272,William Burkheart Mine,NULL,CL,NULL,NULL,Unknown,NULL,NULL,NULL,NULL,Abandoned Mines Remedial Action Program 1989 Annual Report,D*,NULL,NULL,NULL,NULL,NULL,NULL,2012
10942,49.91046539,-105.725652,SK,274,R. Noble Mine,NULL,CL,NULL,NULL,Unknown,NULL,NULL,NULL,NULL,Abandoned Mines Remedial Action Program 1989 Annual Report,D*,NULL,NULL,NULL,NULL,NULL,NULL,2012
10943,49.05252208,-105.823576,SK,278,E.P. Kaczmarski Mine,NULL,CL,NULL,NULL,Unknown,NULL,NULL,NULL,NULL,Abandoned Mines Remedial Action Program 1989 Annual Report,D*,NULL,NULL,NULL,NULL,NULL,NULL,2012
10944,49.26985609,-105.805597,SK,280,J.H. Cowan Mine,NULL,CL,NULL,NULL,Unknown,NULL,NULL,NULL,NULL,Abandoned Mines Remedial Action Program 1989 Annual Report,D*,NULL,NULL,NULL,NULL,NULL,NULL,2012
10945,49.43171112,-105.881358,SK,281,F.C. Kisser Mine,NULL,CL,NULL,NULL,Unknown,NULL,NULL,NULL,NULL,Abandoned Mines Remedial Action Program 1989 Annual Report,D*,NULL,NULL,NULL,NULL,NULL,NULL,2012
10946,49.43533199,-105.842315,SK,283,E. Martin Mine,NULL,CL,NULL,NULL,Unknown,NULL,NULL,NULL,A,Abandoned Mines Remedial Action Program 1989 Annual Report,D*,NULL,NULL,NULL,NULL,NULL,NULL,2012
10947,49.44086079,-105.901025,SK,285,F.L. Gravin Mine,NULL,CL,NULL,NULL,Unknown,NULL,NULL,NULL,NULL,Abandoned Mines Remedial Action Program 1989 Annual Report,D*,NULL,NULL,NULL,NULL,NULL,NULL,2012
10948,49.56990902,-105.803772,SK,286,D.D. Smith Mine,NULL,CL,NULL,NULL,Unknown,NULL,NULL,NULL,NULL,Abandoned Mines Remedial Action Program 1989 Annual Report,D*,NULL,NULL,NULL,NULL,NULL,NULL,2012
10949,49.06708255,-105.890392,SK,289,W.L. Lenius Mine,NULL,CL,NULL,NULL,Unknown,NULL,NULL,NULL,NULL,Abandoned Mines Remedial Action Program 1989 Annual Report,D*,NULL,NULL,NULL,NULL,NULL,NULL,2012
10950,49.15450934,-105.890315,SK,291,J.L. MacKenzie Mine,NULL,CL,NULL,NULL,Unknown,NULL,NULL,NULL,NULL,Abandoned Mines Remedial Action Program 1989 Annual Report,D*,NULL,NULL,NULL,NULL,NULL,NULL,2012
10951,49.41560772,-105.940327,SK,296,A. Caplette Mine,NULL,CL,NULL,NULL,Unknown,NULL,NULL,NULL,NULL,Abandoned Mines Remedial Action Program 1989 Annual Report,D*,NULL,NULL,NULL,NULL,NULL,NULL,2012
10952,49.06546561,-106.114881,SK,303,F.W. Bloom Mine,NULL,CL,NULL,NULL,Unknown,NULL,NULL,NULL,NULL,Abandoned Mines Remedial Action Program 1989 Annual Report,D*,NULL,NULL,NULL,NULL,NULL,NULL,2012
10953,49.08726481,-106.131928,SK,304,A. Trudgeon Mine,NULL,CL,NULL,NULL,Unknown,NULL,NULL,NULL,NULL,Abandoned Mines Remedial Action Program 1989 Annual Report,D*,NULL,NULL,NULL,NULL,NULL,NULL,2012
10954,49.12347848,-106.024656,SK,306,Ludwig Nerple (No. 1) Mine,NULL,CL,NULL,NULL,Unknown,NULL,NULL,NULL,NULL,Abandoned Mines Remedial Action Program 1989 Annual Report,D*,NULL,NULL,NULL,NULL,NULL,NULL,2012
10955,49.19810373,-106.061785,SK,309,E.A. Cartwright Mine,NULL,CL,NULL,NULL,Unknown,NULL,NULL,NULL,NULL,Abandoned Mines Remedial Action Program 1989 Annual Report,D*,NULL,NULL,NULL,NULL,NULL,NULL,2012
10956,49.30017898,-106.107149,SK,311,V.E. Edwards Mine,NULL,CL,NULL,NULL,Unknown,NULL,NULL,NULL,NULL,Abandoned Mines Remedial Action Program 1989 Annual Report,D*,NULL,NULL,NULL,NULL,NULL,NULL,2012
10957,49.30017898,-106.107149,SK,312,B.C. Osburn Mine,NULL,CL,NULL,NULL,Unknown,NULL,NULL,NULL,NULL,Abandoned Mines Remedial Action Program 1989 Annual Report,D*,NULL,NULL,NULL,NULL,NULL,NULL,2012
10958,49.4728906,-106.086936,SK,313,N.L. Kirby Mine,NULL,CL,NULL,NULL,Unknown,NULL,NULL,NULL,NULL,Abandoned Mines Remedial Action Program 1989 Annual Report,D*,NULL,NULL,NULL,NULL,NULL,NULL,2012
10959,49.35850283,-106.174972,SK,317,Joe and Bill Cozak Mine,NULL,CL,NULL,NULL,Unknown,NULL,NULL,NULL,NULL,Abandoned Mines Remedial Action Program 1989 Annual Report,D*,NULL,NULL,NULL,NULL,NULL,NULL,2012
10960,49.0656856,-106.277064,SK,322,Joseph Cocking Mine,NULL,CL,NULL,NULL,Unknown,NULL,NULL,NULL,NULL,Abandoned Mines Remedial Action Program 1989 Annual Report,D*,NULL,NULL,NULL,NULL,NULL,NULL,2012
10961,49.09126966,-106.321419,SK,323,S. Swanson Mine,NULL,CL,NULL,NULL,Unknown,NULL,NULL,NULL,NULL,Abandoned Mines Remedial Action Program 1989 Annual Report,D*,NULL,NULL,NULL,NULL,NULL,NULL,2012
10962,49.16767585,-106.382354,SK,326,Robert Sterling Mine,NULL,CL,NULL,NULL,Unknown,NULL,NULL,NULL,NULL,Abandoned Mines Remedial Action Program 1989 Annual Report,D*,NULL,NULL,NULL,NULL,NULL,NULL,2012
10963,49.3294239,-106.287031,SK,327,John Labocetta (No. 1) Mine,NULL,CL,NULL,NULL,Unknown,NULL,NULL,NULL,NULL,Abandoned Mines Remedial Action Program 1989 Annual Report,D*,NULL,NULL,NULL,NULL,NULL,NULL,2012
10964,49.24027818,-106.541729,SK,330,F. McEwan and F. Tucker Mine,NULL,CL,NULL,NULL,Unknown,NULL,NULL,NULL,NULL,Abandoned Mines Remedial Action Program 1989 Annual Report,D*,NULL,NULL,NULL,NULL,NULL,NULL,2012
10965,49.15463933,-106.552115,SK,333,Mike Donnison Mine,NULL,CL,NULL,NULL,Unknown,NULL,NULL,NULL,NULL,Abandoned Mines Remedial Action Program 1989 Annual Report,D*,NULL,NULL,NULL,NULL,NULL,NULL,2012
10966,49.15463033,-106.574571,SK,334,F. Ozanne Mine,NULL,CL,NULL,NULL,Unknown,NULL,NULL,NULL,NULL,Abandoned Mines Remedial Action Program 1989 Annual Report,D*,NULL,NULL,NULL,NULL,NULL,NULL,2012
10967,49.28740845,-106.620438,SK,335,William Johnson Mine,NULL,CL,NULL,NULL,Unknown,NULL,NULL,NULL,NULL,Abandoned Mines Remedial Action Program 1989 Annual Report,D*,NULL,NULL,NULL,NULL,NULL,NULL,2012
10968,49.19275693,-106.989733,SK,339,John Hubert Mine,NULL,CL,NULL,NULL,Unknown,NULL,NULL,NULL,NULL,Abandoned Mines Remedial Action Program 1989 Annual Report,D*,NULL,NULL,NULL,NULL,NULL,NULL,2012
10969,49.4838502,-108.139038,SK,344,D.J. Ferlardeau Mine,NULL,CL,NULL,NULL,Unknown,NULL,NULL,NULL,NULL,Abandoned Mines Remedial Action Program 1989 Annual Report,D*,NULL,NULL,NULL,NULL,NULL,NULL,2012
10970,49.48936299,-108.124916,SK,345,H. Selander Mine,NULL,CL,NULL,NULL,Unknown,NULL,NULL,NULL,NULL,Abandoned Mines Remedial Action Program 1989 Annual Report,D*,NULL,NULL,NULL,NULL,NULL,NULL,2012
10971,49.38738976,-108.416325,SK,346,Hunter Mine,NULL,CL,NULL,NULL,Unknown,NULL,NULL,NULL,NULL,Abandoned Mines Remedial Action Program 1989 Annual Report,D*,NULL,NULL,NULL,NULL,NULL,NULL,2012
10972,49.59102724,-108.31981,SK,349,James Madden,NULL,CL,NULL,NULL,Unknown,NULL,NULL,NULL,NULL,Abandoned Mines Remedial Action Program 1989 Annual Report,D*,NULL,NULL,NULL,NULL,NULL,NULL,2012
10973,49.59283617,-108.435725,SK,350,Hegedus and Mintak Mine,NULL,CL,NULL,NULL,Unknown,NULL,NULL,NULL,NULL,Abandoned Mines Remedial Action Program 1989 Annual Report,D*,NULL,NULL,NULL,NULL,NULL,NULL,2012
10974,49.59283617,-108.435725,SK,351,Sogan Mine,NULL,CL,NULL,NULL,Unknown,NULL,NULL,NULL,NULL,Abandoned Mines Remedial Action Program 1989 Annual Report,D*,NULL,NULL,NULL,NULL,NULL,NULL,2012
10975,49.62014216,-108.432844,SK,356,Morning Glory Mine,NULL,CL,NULL,NULL,Unknown,NULL,NULL,NULL,NULL,Abandoned Mines Remedial Action Program 1989 Annual Report,D*,NULL,NULL,NULL,NULL,NULL,NULL,2012
10976,49.57820471,-108.492381,SK,367,A. Bowman Mine,NULL,CL,NULL,NULL,Unknown,NULL,NULL,NULL,NULL,Abandoned Mines Remedial Action Program 1989 Annual Report,D*,NULL,NULL,NULL,NULL,NULL,NULL,2012
10977,49.57640378,-108.478106,SK,368,Bright Line Mine,NULL,CL,NULL,NULL,Unknown,NULL,NULL,NULL,NULL,Abandoned Mines Remedial Action Program 1989 Annual Report,D*,NULL,NULL,NULL,NULL,NULL,NULL,2012
10978,49.57459684,-108.486449,SK,369,J.E. Krause Mine,NULL,CL,NULL,NULL,Unknown,NULL,NULL,NULL,NULL,Abandoned Mines Remedial Action Program 1989 Annual Report,D*,NULL,NULL,NULL,NULL,NULL,NULL,2012
10979,49.59103923,-108.568482,SK,371,Roa Mine,NULL,CL,NULL,NULL,Unknown,NULL,NULL,NULL,NULL,Abandoned Mines Remedial Action Program 1989 Annual Report,D*,NULL,NULL,NULL,NULL,NULL,NULL,2012
10980,49.66377454,-108.703928,SK,373,Willmer Mine,NULL,CL,NULL,NULL,Unknown,NULL,NULL,NULL,NULL,Abandoned Mines Remedial Action Program 1989 Annual Report,D*,NULL,NULL,NULL,NULL,NULL,NULL,2012
10981,49.68746466,-108.673006,SK,376,A.O. Booth Mine,NULL,CL,NULL,NULL,Unknown,NULL,NULL,NULL,NULL,Abandoned Mines Remedial Action Program 1989 Annual Report,D*,NULL,NULL,NULL,NULL,NULL,NULL,2012
10982,49.56378224,-108.814148,SK,377,A. Duke Mine,NULL,CL,NULL,NULL,Unknown,NULL,NULL,NULL,NULL,Abandoned Mines Remedial Action Program 1989 Annual Report,D*,NULL,NULL,NULL,NULL,NULL,NULL,2012
10983,49.59105723,-108.794301,SK,379,Ferris Mine,NULL,CL,NULL,NULL,Unknown,NULL,NULL,NULL,NULL,Abandoned Mines Remedial Action Program 1989 Annual Report,D*,NULL,NULL,NULL,NULL,NULL,NULL,2012
10984,49.6055317,-108.749058,SK,380,J.L. Marquis Mine,NULL,CL,NULL,NULL,Unknown,NULL,NULL,NULL,NULL,Abandoned Mines Remedial Action Program 1989 Annual Report,D*,NULL,NULL,NULL,NULL,NULL,NULL,2012
10985,49.60733863,-108.746275,SK,381,T. Hailaert Mine,NULL,CL,NULL,NULL,Unknown,NULL,NULL,NULL,NULL,Abandoned Mines Remedial Action Program 1989 Annual Report,D*,NULL,NULL,NULL,NULL,NULL,NULL,2012
10986,49.64747715,-108.73484,SK,383,R.E. Blackman Mine,NULL,CL,NULL,NULL,Unknown,NULL,NULL,NULL,NULL,Abandoned Mines Remedial Action Program 1989 Annual Report,D*,NULL,NULL,NULL,NULL,NULL,NULL,2012
10987,49.87274579,-108.825965,SK,384,S.J. Smith Mine,NULL,CL,NULL,NULL,Unknown,NULL,NULL,NULL,NULL,Abandoned Mines Remedial Action Program 1989 Annual Report,D*,NULL,NULL,NULL,NULL,NULL,NULL,2012
10988,49.45452528,-108.956973,SK,385,A.C. Dovel Mine,NULL,CL,NULL,NULL,Unknown,NULL,NULL,NULL,NULL,Abandoned Mines Remedial Action Program 1989 Annual Report,D*,NULL,NULL,NULL,NULL,NULL,NULL,2012
10989,49.45633421,-108.903794,SK,386,G.W. Seafoot Mine,NULL,CL,NULL,NULL,Unknown,NULL,NULL,NULL,NULL,Abandoned Mines Remedial Action Program 1989 Annual Report,D*,NULL,NULL,NULL,NULL,NULL,NULL,2012
10990,49.47278061,-108.912126,SK,387,W.A. Wiley Mine,NULL,CL,NULL,NULL,Unknown,NULL,NULL,NULL,NULL,Abandoned Mines Remedial Action Program 1989 Annual Report,D*,NULL,NULL,NULL,NULL,NULL,NULL,2012
10991,49.47455054,-108.931798,SK,388,W.A. Wiley Mine,NULL,CL,NULL,NULL,Unknown,NULL,NULL,NULL,NULL,Abandoned Mines Remedial Action Program 1989 Annual Report,D*,NULL,NULL,NULL,NULL,NULL,NULL,2012
10992,49.48723907,-108.895268,SK,389,A. Lapointe Mine,NULL,CL,NULL,NULL,Unknown,NULL,NULL,NULL,NULL,Abandoned Mines Remedial Action Program 1989 Annual Report,D*,NULL,NULL,NULL,NULL,NULL,NULL,2012
10993,49.48904701,-108.864528,SK,390,Dovell Mine,NULL,CL,NULL,NULL,Unknown,NULL,NULL,NULL,NULL,Abandoned Mines Remedial Action Program 1989 Annual Report,D*,NULL,NULL,NULL,NULL,NULL,NULL,2012
10994,49.49079494,-108.850446,SK,391,Peter Larson Mine,NULL,CL,NULL,NULL,Unknown,NULL,NULL,NULL,NULL,Abandoned Mines Remedial Action Program 1989 Annual Report,D*,NULL,NULL,NULL,NULL,NULL,NULL,2012
10995,49.52747959,-108.859423,SK,392,J.D. Vogel Mine,NULL,CL,NULL,NULL,Unknown,NULL,NULL,NULL,NULL,Abandoned Mines Remedial Action Program 1989 Annual Report,D*,NULL,NULL,NULL,NULL,NULL,NULL,2012
10996,49.80378235,-108.921896,SK,394,Samuel Hobbs Mine,NULL,CL,NULL,NULL,Unknown,NULL,NULL,NULL,NULL,Abandoned Mines Remedial Action Program 1989 Annual Report,D*,NULL,NULL,NULL,NULL,NULL,NULL,2012
10997,49.8238576,-108.907699,SK,395,C. Newton Mine,NULL,CL,NULL,NULL,Unknown,NULL,NULL,NULL,NULL,Abandoned Mines Remedial Action Program 1989 Annual Report,D*,NULL,NULL,NULL,NULL,NULL,NULL,2012
10998,49.38546283,-109.097006,SK,396,JJ. Pederson Mine,NULL,CL,NULL,NULL,Unknown,NULL,NULL,NULL,NULL,Abandoned Mines Remedial Action Program 1989 Annual Report,D*,NULL,NULL,NULL,NULL,NULL,NULL,2012
10999,49.59099724,-109.201001,SK,397,Elsom Mine,NULL,CL,NULL,NULL,Unknown,NULL,NULL,NULL,NULL,Abandoned Mines Remedial Action Program 1989 Annual Report,D*,NULL,NULL,NULL,NULL,NULL,NULL,2012
11000,49.02323016,-109.556906,SK,399,Kisell Mine,NULL,CL,NULL,NULL,Unknown,NULL,NULL,NULL,NULL,Abandoned Mines Remedial Action Program 1989 Annual Report,D*,NULL,NULL,NULL,NULL,NULL,NULL,2012
11001,49.47665246,-109.534451,SK,401,E. Lavallie Mine,NULL,CL,NULL,NULL,Unknown,NULL,NULL,NULL,NULL,Abandoned Mines Remedial Action Program 1989 Annual Report,D*,NULL,NULL,NULL,NULL,NULL,NULL,2012
11002,49.59318416,-109.537128,SK,402,H.L. Marshall Mine,NULL,CL,NULL,NULL,Unknown,NULL,NULL,NULL,NULL,Abandoned Mines Remedial Action Program 1989 Annual Report,D*,NULL,NULL,NULL,NULL,NULL,NULL,2012
11003,49.60038689,-109.537114,SK,403,M.G. Coylen Mine,NULL,CL,NULL,NULL,Unknown,NULL,NULL,NULL,NULL,Abandoned Mines Remedial Action Program 1989 Annual Report,D*,NULL,NULL,NULL,NULL,NULL,NULL,2012
11004,49.66400353,-109.675777,SK,404,Klosnick Mine,NULL,CL,NULL,NULL,Unknown,NULL,NULL,NULL,NULL,Abandoned Mines Remedial Action Program 1989 Annual Report,D*,NULL,NULL,NULL,NULL,NULL,NULL,2012
11005,49.66400353,-109.675777,SK,405,"Berlands, Corrini and Santoni Mine",NULL,CL,NULL,NULL,Unknown,NULL,NULL,NULL,NULL,Abandoned Mines Remedial Action Program 1989 Annual Report,D*,NULL,NULL,NULL,NULL,NULL,NULL,2012
11006,49.019498,-109.520532,SK,400,George Storke Mine,NULL,CL,NULL,NULL,Unknown,NULL,NULL,NULL,NULL,Abandoned Mines Remedial Action Program 1989 Annual Report,D*,NULL,NULL,NULL,NULL,NULL,NULL,2012
11007,49.59641904,-109.2010048,SK,398,Louis Lapointe Mine,NULL,CL,NULL,NULL,Unknown,NULL,NULL,NULL,NULL,Abandoned Mines Remedial Action Program 1989 Annual Report,D*,NULL,NULL,NULL,NULL,NULL,NULL,2012
11008,49.5265758,-108.8580306,SK,393,T.J. Ferris Mine,NULL,CL,NULL,NULL,Unknown,NULL,NULL,NULL,NULL,Abandoned Mines Remedial Action Program 1989 Annual Report,D*,NULL,NULL,NULL,NULL,NULL,NULL,2012
11009,49.61003826,-108.73479,SK,382,C.L. Smith Mine,NULL,CL,NULL,NULL,Unknown,NULL,NULL,NULL,NULL,Abandoned Mines Remedial Action Program 1989 Annual Report,D*,NULL,NULL,NULL,NULL,NULL,NULL,2012
11010,49.594677,-108.774455,SK,378,E. LaRose Mine,NULL,CL,NULL,NULL,Unknown,NULL,NULL,NULL,NULL,Abandoned Mines Remedial Action Program 1989 Annual Report,D*,NULL,NULL,NULL,NULL,NULL,NULL,2012
11011,49.66286889,-108.706714,SK,375,Bruce Freaman Mine,NULL,CL,NULL,NULL,Unknown,NULL,NULL,NULL,NULL,Abandoned Mines Remedial Action Program 1989 Annual Report,D*,NULL,NULL,NULL,NULL,NULL,NULL,2012
11012,49.66558147,-108.7108956,SK,374,Poisson Mine,NULL,CL,NULL,NULL,Unknown,NULL,NULL,NULL,NULL,Abandoned Mines Remedial Action Program 1989 Annual Report,D*,NULL,NULL,NULL,NULL,NULL,NULL,2012
11013,49.6000669,-108.4499492,SK,372,Walter Seargeant Mines,NULL,CL,NULL,NULL,Unknown,NULL,NULL,NULL,NULL,Abandoned Mines Remedial Action Program 1989 Annual Report,D*,NULL,NULL,NULL,NULL,NULL,NULL,2012
11014,49.59372673,-108.4485654,SK,370,J. Madden Mine,NULL,CL,NULL,NULL,Unknown,NULL,NULL,NULL,NULL,Abandoned Mines Remedial Action Program 1989 Annual Report,D*,NULL,NULL,NULL,NULL,NULL,NULL,2012
11015,49.56282313,-108.526139,SK,366,J. Golem Mine,NULL,CL,NULL,NULL,Unknown,NULL,NULL,NULL,NULL,Abandoned Mines Remedial Action Program 1989 Annual Report,D*,NULL,NULL,NULL,NULL,NULL,NULL,2012
11016,49.54275456,-108.531668,SK,365,Villeneuve Mine,NULL,CL,NULL,NULL,Unknown,NULL,NULL,NULL,NULL,Abandoned Mines Remedial Action Program 1989 Annual Report,D*,NULL,NULL,NULL,NULL,NULL,NULL,2012
11017,49.62830392,-108.531629,SK,364,Gosselin Mine,NULL,CL,NULL,NULL,Unknown,NULL,NULL,NULL,NULL,Abandoned Mines Remedial Action Program 1989 Annual Report,D*,NULL,NULL,NULL,NULL,NULL,NULL,2012
11018,49.5373096,-108.531655,SK,363,Jack Berg Mine,NULL,CL,NULL,NULL,Unknown,NULL,NULL,NULL,NULL,Abandoned Mines Remedial Action Program 1989 Annual Report,D*,NULL,NULL,NULL,NULL,NULL,NULL,2012
11019,49.70120357,-108.3778996,SK,362,Twin Hoist Mine,NULL,CL,NULL,NULL,Unknown,NULL,NULL,NULL,NULL,Abandoned Mines Remedial Action Program 1989 Annual Report,D*,NULL,NULL,NULL,NULL,NULL,NULL,2012
11020,49.70300466,-108.3778996,SK,361,Kaminski Mine,NULL,CL,NULL,NULL,Unknown,NULL,NULL,NULL,NULL,Abandoned Mines Remedial Action Program 1989 Annual Report,D*,NULL,NULL,NULL,NULL,NULL,NULL,2012
11021,49.7048515,-108.3747594,SK,360,David Carson Mine,NULL,CL,NULL,NULL,Unknown,NULL,NULL,NULL,NULL,Abandoned Mines Remedial Action Program 1989 Annual Report,D*,NULL,NULL,NULL,NULL,NULL,NULL,2012
11022,49.70213712,-108.3747584,SK,359,North Star Mine,NULL,CL,NULL,NULL,Unknown,NULL,NULL,NULL,NULL,Abandoned Mines Remedial Action Program 1989 Annual Report,D*,NULL,NULL,NULL,NULL,NULL,NULL,2012
11023,49.63102913,-108.3646673,SK,358,Thomas Reardon Mine,NULL,CL,NULL,NULL,Unknown,NULL,NULL,NULL,NULL,Abandoned Mines Remedial Action Program 1989 Annual Report,D*,NULL,NULL,NULL,NULL,NULL,NULL,2012
11024,49.63460562,-108.4213651,SK,357,Chris Jensen Mine,NULL,CL,NULL,NULL,Unknown,NULL,NULL,NULL,NULL,Abandoned Mines Remedial Action Program 1989 Annual Report,D*,NULL,NULL,NULL,NULL,NULL,NULL,2012
11025,49.55447495,-108.365022,SK,355,W.J. Fallis Mine,NULL,CL,NULL,NULL,Unknown,NULL,NULL,NULL,NULL,Abandoned Mines Remedial Action Program 1989 Annual Report,D*,NULL,NULL,NULL,NULL,NULL,NULL,2012
11026,49.59554853,-108.435726,SK,354,William Dempsey Mine,NULL,CL,NULL,NULL,Unknown,NULL,NULL,NULL,NULL,Abandoned Mines Remedial Action Program 1989 Annual Report,D*,NULL,NULL,NULL,NULL,NULL,NULL,2012
11027,49.59554853,-108.4398986,SK,353,William Jones Mine,NULL,CL,NULL,NULL,Unknown,NULL,NULL,NULL,NULL,Abandoned Mines Remedial Action Program 1989 Annual Report,D*,NULL,NULL,NULL,NULL,NULL,NULL,2012
11028,49.59554853,-108.4398986,SK,352,Hunter-Symingtion Mine,NULL,CL,NULL,NULL,Unknown,NULL,NULL,NULL,NULL,Abandoned Mines Remedial Action Program 1989 Annual Report,D*,NULL,NULL,NULL,NULL,NULL,NULL,2012
11029,49.58178958,-108.4315744,SK,348,Wildfire Mine,NULL,CL,NULL,NULL,Unknown,NULL,NULL,NULL,NULL,Abandoned Mines Remedial Action Program 1989 Annual Report,D*,NULL,NULL,NULL,NULL,NULL,NULL,2012
11030,49.58178958,-108.4371374,SK,347,Thomas Symington Mine,NULL,CL,NULL,NULL,Unknown,NULL,NULL,NULL,NULL,Abandoned Mines Remedial Action Program 1989 Annual Report,D*,NULL,NULL,NULL,NULL,NULL,NULL,2012
11031,49.06185074,-106.1107674,SK,302,D. Radke Mine,NULL,CL,NULL,NULL,Unknown,NULL,NULL,NULL,NULL,Abandoned Mines Remedial Action Program 1989 Annual Report,D*,NULL,NULL,NULL,NULL,NULL,NULL,2012
11032,49.12438969,-106.0274408,SK,305,J. Brandiezs Mine,NULL,CL,NULL,NULL,Unknown,NULL,NULL,NULL,NULL,Abandoned Mines Remedial Action Program 1989 Annual Report,D*,NULL,NULL,NULL,NULL,NULL,NULL,2012
11033,49.12800349,-106.024657,SK,307,Marry Livingstone Mine,NULL,CL,NULL,NULL,Unknown,NULL,NULL,NULL,NULL,Abandoned Mines Remedial Action Program 1989 Annual Report,D*,NULL,NULL,NULL,NULL,NULL,NULL,2012
11034,49.12447069,-106.0292536,SK,308,Ludwig Nerple (No. 2) Mine,NULL,CL,NULL,NULL,Unknown,NULL,NULL,NULL,NULL,Abandoned Mines Remedial Action Program 1989 Annual Report,D*,NULL,NULL,NULL,NULL,NULL,NULL,2012
11035,49.23734646,-106.0659384,SK,310,Ray Peterson Mine,NULL,CL,NULL,NULL,Unknown,NULL,NULL,NULL,NULL,Abandoned Mines Remedial Action Program 1989 Annual Report,D*,NULL,NULL,NULL,NULL,NULL,NULL,2012
11036,49.49099713,-106.10397,SK,314,Paul Tarita Mine,NULL,CL,NULL,NULL,Unknown,NULL,NULL,NULL,NULL,Abandoned Mines Remedial Action Program 1989 Annual Report,D*,NULL,NULL,NULL,NULL,NULL,NULL,2012
11037,49.212746,-107.0644984,SK,343,J. McCleary Mine,NULL,CL,NULL,NULL,Unknown,NULL,NULL,NULL,NULL,Abandoned Mines Remedial Action Program 1989 Annual Report,D*,NULL,NULL,NULL,NULL,NULL,NULL,2012
11038,49.21105626,-107.0447076,SK,342,Marshall Porter Mine,NULL,CL,NULL,NULL,Unknown,NULL,NULL,NULL,NULL,Abandoned Mines Remedial Action Program 1989 Annual Report,D*,NULL,NULL,NULL,NULL,NULL,NULL,2012
11039,49.18913006,-106.9759598,SK,341,J. Hubert Mine,NULL,CL,NULL,NULL,Unknown,NULL,NULL,NULL,NULL,Abandoned Mines Remedial Action Program 1989 Annual Report,D*,NULL,NULL,NULL,NULL,NULL,NULL,2012
11040,49.18913006,-106.9828206,SK,340,O.M. Ramsland Mine,NULL,CL,NULL,NULL,Unknown,NULL,NULL,NULL,NULL,Abandoned Mines Remedial Action Program 1989 Annual Report,D*,NULL,NULL,NULL,NULL,NULL,NULL,2012
11041,49.311131,-106.6960558,SK,338,E. Carriere Mine,NULL,CL,NULL,NULL,Unknown,NULL,NULL,NULL,NULL,Abandoned Mines Remedial Action Program 1989 Annual Report,D*,NULL,NULL,NULL,NULL,NULL,NULL,2012
11042,49.30839283,-106.726961,SK,337,C. Herman Mine,NULL,CL,NULL,NULL,Unknown,NULL,NULL,NULL,NULL,Abandoned Mines Remedial Action Program 1989 Annual Report,D*,NULL,NULL,NULL,NULL,NULL,NULL,2012
11043,49.2720245,-106.743613,SK,336,William Beckard Mine,NULL,CL,NULL,NULL,Unknown,NULL,NULL,NULL,NULL,Abandoned Mines Remedial Action Program 1989 Annual Report,D*,NULL,NULL,NULL,NULL,NULL,NULL,2012
11044,49.380257,-106.4719852,SK,332,John Labocetta (No. 2) Mine,NULL,CL,NULL,NULL,Unknown,NULL,NULL,NULL,NULL,Abandoned Mines Remedial Action Program 1989 Annual Report,D*,NULL,NULL,NULL,NULL,NULL,NULL,2012
11045,49.296675,-106.4900816,SK,331,Oscar Fogelberg Mine,NULL,CL,NULL,NULL,Unknown,NULL,NULL,NULL,NULL,Abandoned Mines Remedial Action Program 1989 Annual Report,D*,NULL,NULL,NULL,NULL,NULL,NULL,2012
11046,49.00358288,-106.5353752,SK,329,P. Seishanko Mine,NULL,CL,NULL,NULL,Unknown,NULL,NULL,NULL,NULL,Abandoned Mines Remedial Action Program 1989 Annual Report,D*,NULL,NULL,NULL,NULL,NULL,NULL,2012
11047,49.34295062,-106.3669586,SK,328,Bill Sanjenko Mine,NULL,CL,NULL,NULL,Unknown,NULL,NULL,NULL,NULL,Abandoned Mines Remedial Action Program 1989 Annual Report,D*,NULL,NULL,NULL,NULL,NULL,NULL,2012
11048,49.13220026,-106.3672254,SK,325,Louis Nagel Mine,NULL,CL,NULL,NULL,Unknown,NULL,NULL,NULL,NULL,Abandoned Mines Remedial Action Program 1989 Annual Report,D*,NULL,NULL,NULL,NULL,NULL,NULL,2012
11049,49.13128919,-106.3644406,SK,324,E.W. Lester Mine,NULL,CL,NULL,NULL,Unknown,NULL,NULL,NULL,NULL,Abandoned Mines Remedial Action Program 1989 Annual Report,D*,NULL,NULL,NULL,NULL,NULL,NULL,2012
11050,49.012906,-106.365872,SK,321,William Moseanko Mine,NULL,CL,NULL,NULL,Unknown,NULL,NULL,NULL,NULL,Abandoned Mines Remedial Action Program 1989 Annual Report,D*,NULL,NULL,NULL,NULL,NULL,NULL,2012
11051,49.012906,-106.365872,SK,320,P.J. Dovitch,NULL,CL,NULL,NULL,Unknown,NULL,NULL,NULL,NULL,Abandoned Mines Remedial Action Program 1989 Annual Report,D*,NULL,NULL,NULL,NULL,NULL,NULL,2012
11052,49.44406267,-106.1691218,SK,319,J.W. Bogdane Mine,NULL,CL,NULL,NULL,Unknown,NULL,NULL,NULL,NULL,Abandoned Mines Remedial Action Program 1989 Annual Report,D*,NULL,NULL,NULL,NULL,NULL,NULL,2012
11053,49.4404478,-106.1691218,SK,318,Fred Harris Mine,NULL,CL,NULL,NULL,Unknown,NULL,NULL,NULL,NULL,Abandoned Mines Remedial Action Program 1989 Annual Report,D*,NULL,NULL,NULL,NULL,NULL,NULL,2012
11054,49.4837422,-106.0938624,SK,316,J. Wolfe Mine,NULL,CL,NULL,NULL,Unknown,NULL,NULL,NULL,NULL,Abandoned Mines Remedial Action Program 1989 Annual Report,D*,NULL,NULL,NULL,NULL,NULL,NULL,2012
11055,49.485577,-106.0970236,SK,315,Rouse and Kimball Mine,NULL,CL,NULL,NULL,Unknown,NULL,NULL,NULL,NULL,Abandoned Mines Remedial Action Program 1989 Annual Report,D*,NULL,NULL,NULL,NULL,NULL,NULL,2012
11056,49.54608658,-105.9970048,SK,301,F.C. Kissner Mine,NULL,CL,NULL,NULL,Unknown,NULL,NULL,NULL,NULL,Abandoned Mines Remedial Action Program 1989 Annual Report,D*,NULL,NULL,NULL,NULL,NULL,NULL,2012
11057,49.5487048,-106.0593038,SK,300,F. Somelneko Mine,NULL,CL,NULL,NULL,Unknown,NULL,NULL,NULL,NULL,Abandoned Mines Remedial Action Program 1989 Annual Report,D*,NULL,NULL,NULL,NULL,NULL,NULL,2012
11058,49.45980604,-105.909633,SK,299,Alfred Berry Mine,NULL,CL,NULL,NULL,Unknown,NULL,NULL,NULL,NULL,Abandoned Mines Remedial Action Program 1989 Annual Report,D*,NULL,NULL,NULL,NULL,NULL,NULL,2012
11059,49.46526885,-105.948826,SK,298,A. Delorme Mine,NULL,CL,NULL,NULL,Unknown,NULL,NULL,NULL,NULL,Abandoned Mines Remedial Action Program 1989 Annual Report,D*,NULL,NULL,NULL,NULL,NULL,NULL,2012
11060,49.45352032,-105.9349392,SK,297,G.J. Wright Mine,NULL,CL,NULL,NULL,Unknown,NULL,NULL,NULL,NULL,Abandoned Mines Remedial Action Program 1989 Annual Report,D*,NULL,NULL,NULL,NULL,NULL,NULL,2012
11061,49.38898308,-105.926133,SK,295,P. Perrin Mine,NULL,CL,NULL,NULL,Unknown,NULL,NULL,NULL,NULL,Abandoned Mines Remedial Action Program 1989 Annual Report,D*,NULL,NULL,NULL,NULL,NULL,NULL,2012
11062,49.24435607,-106.004521,SK,294,P.J. Moyer Mine,NULL,CL,NULL,NULL,Unknown,NULL,NULL,NULL,NULL,Abandoned Mines Remedial Action Program 1989 Annual Report,D*,NULL,NULL,NULL,NULL,NULL,NULL,2012
11063,49.16215152,-105.943123,SK,293,O. Hostin (No. 1) Mine,NULL,CL,NULL,NULL,Unknown,NULL,NULL,NULL,NULL,Abandoned Mines Remedial Action Program 1989 Annual Report,D*,NULL,NULL,NULL,NULL,NULL,NULL,2012
11064,49.14908754,-105.8889484,SK,292,O. Hostin (No. 2) Mine,NULL,CL,NULL,NULL,Unknown,NULL,NULL,NULL,NULL,Abandoned Mines Remedial Action Program 1989 Annual Report,D*,NULL,NULL,NULL,NULL,NULL,NULL,2012
11065,49.12176715,-105.9181152,SK,290,J. Kleinfelder Mine,NULL,CL,NULL,NULL,Unknown,NULL,NULL,NULL,NULL,Abandoned Mines Remedial Action Program 1989 Annual Report,D*,NULL,NULL,NULL,NULL,NULL,NULL,2012
11066,49.56990902,-105.8107264,SK,288,E. Lumb Mine,NULL,CL,NULL,NULL,Unknown,NULL,NULL,NULL,NULL,Abandoned Mines Remedial Action Program 1989 Annual Report,D*,NULL,NULL,NULL,NULL,NULL,NULL,2012
11067,49.56990902,-105.8107264,SK,287,H. Lumb Mine,NULL,CL,NULL,NULL,Unknown,NULL,NULL,NULL,NULL,Abandoned Mines Remedial Action Program 1989 Annual Report,D*,NULL,NULL,NULL,NULL,NULL,NULL,2012
11068,49.43533199,-105.8409226,SK,284,H.M. Davis Mine,NULL,CL,NULL,NULL,Unknown,NULL,NULL,NULL,A,Abandoned Mines Remedial Action Program 1989 Annual Report,D*,NULL,NULL,NULL,NULL,NULL,NULL,2012
11069,49.43352818,-105.847862,SK,282,O. Beauchesne Mine,NULL,CL,NULL,NULL,Unknown,NULL,NULL,NULL,NULL,Abandoned Mines Remedial Action Program 1989 Annual Report,D*,NULL,NULL,NULL,NULL,NULL,NULL,2012
11070,49.14912054,-105.8527166,SK,279,Francois Berthelot Mine,NULL,CL,NULL,NULL,Unknown,NULL,NULL,NULL,NULL,Abandoned Mines Remedial Action Program 1989 Annual Report,D*,NULL,NULL,NULL,NULL,NULL,NULL,2012
11071,49.02066012,-105.8290908,SK,277,J. Jarton Mine,NULL,CL,NULL,NULL,Unknown,NULL,NULL,NULL,NULL,Abandoned Mines Remedial Action Program 1989 Annual Report,D*,NULL,NULL,NULL,NULL,NULL,NULL,2012
11072,49.01347325,-105.8290828,SK,276,James Burton Mine,NULL,CL,NULL,NULL,Unknown,NULL,NULL,NULL,NULL,Abandoned Mines Remedial Action Program 1989 Annual Report,D*,NULL,NULL,NULL,NULL,NULL,NULL,2012
11073,49.9449761,-105.8110328,SK,275,Ardill Coal Mining Company,NULL,CL,NULL,NULL,Unknown,NULL,NULL,NULL,NULL,Abandoned Mines Remedial Action Program 1989 Annual Report,D*,NULL,NULL,NULL,NULL,NULL,NULL,2012
11074,49.88230321,-105.7469534,SK,273,William Woodend Mine,NULL,CL,NULL,NULL,Unknown,NULL,NULL,NULL,NULL,Abandoned Mines Remedial Action Program 1989 Annual Report,D*,NULL,NULL,NULL,NULL,NULL,NULL,2012
11075,49.85740836,-105.7345326,SK,270,P. Mowchenko Mine,NULL,CL,NULL,NULL,Unknown,NULL,NULL,NULL,NULL,Abandoned Mines Remedial Action Program 1989 Annual Report,D*,NULL,NULL,NULL,NULL,NULL,NULL,2012
11076,49.82647308,-105.741533,SK,269,R. Glomboski Mine,NULL,CL,NULL,NULL,Unknown,NULL,NULL,NULL,NULL,Abandoned Mines Remedial Action Program 1989 Annual Report,D*,NULL,NULL,NULL,NULL,NULL,NULL,2012
11077,49.82829144,-105.7387268,SK,268,L. Helland Mine,NULL,CL,NULL,NULL,Unknown,NULL,NULL,NULL,NULL,Abandoned Mines Remedial Action Program 1989 Annual Report,D*,NULL,NULL,NULL,NULL,NULL,NULL,2012
11078,49.45271717,-105.6530124,SK,266,M.B. Lidland Mine,NULL,CL,NULL,NULL,Unknown,NULL,NULL,NULL,NULL,Abandoned Mines Remedial Action Program 1989 Annual Report,D*,NULL,NULL,NULL,NULL,NULL,NULL,2012
11079,49.43822143,-105.646026,SK,265,J.G. Deschamps Mine,NULL,CL,NULL,NULL,Unknown,NULL,NULL,NULL,NULL,Abandoned Mines Remedial Action Program 1989 Annual Report,D*,NULL,NULL,NULL,NULL,NULL,NULL,2012
11080,49.42711564,-105.752585,SK,264,O. Dupius Mine,NULL,CL,NULL,NULL,Unknown,NULL,NULL,NULL,NULL,Abandoned Mines Remedial Action Program 1989 Annual Report,D*,NULL,NULL,NULL,NULL,NULL,NULL,2012
11081,49.42440639,-105.7539774,SK,263,Wilhelm and E. Jerome Mine,NULL,CL,NULL,NULL,Unknown,NULL,NULL,NULL,NULL,Abandoned Mines Remedial Action Program 1989 Annual Report,D*,NULL,NULL,NULL,NULL,NULL,NULL,2012
11082,49.42184226,-105.6978384,SK,262,Charles S. Dunn Mine,NULL,CL,NULL,NULL,Unknown,NULL,NULL,NULL,NULL,Abandoned Mines Remedial Action Program 1989 Annual Report,D*,NULL,NULL,NULL,NULL,NULL,NULL,2012
11083,49.42093652,-105.6950536,SK,261,S. Dauphinias Mine,NULL,CL,NULL,NULL,Unknown,NULL,NULL,NULL,NULL,Abandoned Mines Remedial Action Program 1989 Annual Report,D*,NULL,NULL,NULL,NULL,NULL,NULL,2012
11084,49.3918416,-105.6478576,SK,260,Alexander Paulhus Mine,NULL,CL,NULL,NULL,Unknown,NULL,NULL,NULL,NULL,Abandoned Mines Remedial Action Program 1989 Annual Report,D*,NULL,NULL,NULL,NULL,NULL,NULL,2012
11085,50.17662685,-105.726055,SK,259,J. Rabaud Mine,NULL,CL,NULL,NULL,Unknown,NULL,NULL,NULL,NULL,Abandoned Mines Remedial Action Program 1989 Annual Report,D*,NULL,NULL,NULL,NULL,NULL,NULL,2012
11086,49.38737637,-105.668455,SK,258,Joseph Lapointe Mine,NULL,CL,NULL,NULL,Unknown,NULL,NULL,NULL,NULL,Abandoned Mines Remedial Action Program 1989 Annual Report,D*,NULL,NULL,NULL,NULL,NULL,NULL,2012
11087,49.38557527,-105.6760172,SK,257,J.M. McGillis Mine,NULL,CL,NULL,NULL,Unknown,NULL,NULL,NULL,NULL,Abandoned Mines Remedial Action Program 1989 Annual Report,D*,NULL,NULL,NULL,NULL,NULL,NULL,2012
11088,49.10987849,-105.731814,SK,254,J.B. Dauphinias Mine,NULL,CL,NULL,NULL,Unknown,NULL,NULL,NULL,NULL,Abandoned Mines Remedial Action Program 1989 Annual Report,D*,NULL,NULL,NULL,NULL,NULL,NULL,2012
11089,49.070766,-105.687239,SK,252,William Warren Mine,NULL,CL,NULL,NULL,Unknown,NULL,NULL,NULL,NULL,Abandoned Mines Remedial Action Program 1989 Annual Report,D*,NULL,NULL,NULL,NULL,NULL,NULL,2012
11090,49.0552065,-105.670493,SK,251,Robert Dauphinias Mine,NULL,CL,NULL,NULL,Unknown,NULL,NULL,NULL,NULL,Abandoned Mines Remedial Action Program 1989 Annual Report,D*,NULL,NULL,NULL,NULL,NULL,NULL,2012
11091,49.00713275,-105.6300146,SK,250,H.N. Fair Mine,NULL,CL,NULL,NULL,Unknown,NULL,NULL,NULL,NULL,Abandoned Mines Remedial Action Program 1989 Annual Report,D*,NULL,NULL,NULL,NULL,NULL,NULL,2012
11092,49.60182941,-105.600228,SK,249,G.F. Bates Mine,NULL,CL,NULL,NULL,Unknown,NULL,NULL,NULL,NULL,Abandoned Mines Remedial Action Program 1989 Annual Report,D*,NULL,NULL,NULL,NULL,NULL,NULL,2012
11093,49.59911694,-105.6016204,SK,248,William Steele Mine,NULL,CL,NULL,NULL,Unknown,NULL,NULL,NULL,NULL,Abandoned Mines Remedial Action Program 1989 Annual Report,D*,NULL,NULL,NULL,NULL,NULL,NULL,2012
11094,49.59911694,-105.5988356,SK,247,John Reese Mine,NULL,CL,NULL,NULL,Unknown,NULL,NULL,NULL,NULL,Abandoned Mines Remedial Action Program 1989 Annual Report,D*,NULL,NULL,NULL,NULL,NULL,NULL,2012
11095,49.59369934,-105.6016164,SK,245,E.G. Emery Mine,NULL,CL,NULL,NULL,Unknown,NULL,NULL,NULL,NULL,Abandoned Mines Remedial Action Program 1989 Annual Report,D*,NULL,NULL,NULL,NULL,NULL,NULL,2012
11096,49.59550907,-105.5974392,SK,244,Robert Campkin Mines,NULL,CL,NULL,NULL,Unknown,NULL,NULL,NULL,NULL,Abandoned Mines Remedial Action Program 1989 Annual Report,D*,NULL,NULL,NULL,NULL,NULL,NULL,2012
11097,49.59612433,-105.5859538,SK,242,K.J. Emery Mine,NULL,CL,NULL,NULL,Unknown,NULL,NULL,NULL,NULL,Abandoned Mines Remedial Action Program 1989 Annual Report,D*,NULL,NULL,NULL,NULL,NULL,NULL,2012
11098,49.59463954,-105.5915188,SK,241,C. Campkin (No. 2) Mine,NULL,CL,NULL,NULL,Unknown,NULL,NULL,NULL,NULL,Abandoned Mines Remedial Action Program 1989 Annual Report,D*,NULL,NULL,NULL,NULL,NULL,NULL,2012
11099,49.59554207,-105.5915142,SK,240,C. Campkin (No. 1) Mine,NULL,CL,NULL,NULL,Unknown,NULL,NULL,NULL,NULL,Abandoned Mines Remedial Action Program 1989 Annual Report,D*,NULL,NULL,NULL,NULL,NULL,NULL,2012
11100,49.59463954,-105.588734,SK,239,Mrs. E.J. Campkin Mine,NULL,CL,NULL,NULL,Unknown,NULL,NULL,NULL,NULL,Abandoned Mines Remedial Action Program 1989 Annual Report,D*,NULL,NULL,NULL,NULL,NULL,NULL,2012
11101,49.59644458,-105.594299,SK,238,George Sanftleban Mine,NULL,CL,NULL,NULL,Unknown,NULL,NULL,NULL,NULL,Abandoned Mines Remedial Action Program 1989 Annual Report,D*,NULL,NULL,NULL,NULL,NULL,NULL,2012
11102,49.51824196,-105.601315,SK,236,R. Birchard Mine,NULL,CL,NULL,NULL,Unknown,NULL,NULL,NULL,NULL,Abandoned Mines Remedial Action Program 1989 Annual Report,D*,NULL,NULL,NULL,NULL,NULL,NULL,2012
11103,49.5082563,-105.6082574,SK,234,Victor Fairfield Mine,NULL,CL,NULL,NULL,Unknown,NULL,NULL,NULL,NULL,Abandoned Mines Remedial Action Program 1989 Annual Report,D*,NULL,NULL,NULL,NULL,NULL,NULL,2012
11104,49.50735216,-105.6082574,SK,233,R. Wilhelm Mine,NULL,CL,NULL,NULL,Unknown,NULL,NULL,NULL,NULL,Abandoned Mines Remedial Action Program 1989 Annual Report,D*,NULL,NULL,NULL,NULL,NULL,NULL,2012
11105,49.5082563,-105.6096352,SK,232,C.K. Sjodin Mine,NULL,CL,NULL,NULL,Unknown,NULL,NULL,NULL,NULL,Abandoned Mines Remedial Action Program 1989 Annual Report,D*,NULL,NULL,NULL,NULL,NULL,NULL,2012
11106,49.080369,-102.756449,SK,22,Western Dominion (Taylorton) Coal Mines,NULL,CL,NULL,NULL,Unknown,NULL,NULL,NULL,NULL,Abandoned Mines Remedial Action Program 1989 Annual Report,D*,NULL,NULL,NULL,NULL,NULL,NULL,2012
11107,49.110002,-102.756431,SK,31,Manitoba and Saskatchewan Coal Company Mine,NULL,CL,NULL,NULL,Unknown,NULL,NULL,NULL,NULL,Abandoned Mines Remedial Action Program 1989 Annual Report,D*,NULL,NULL,NULL,NULL,NULL,NULL,2012
11108,49.357279,-105.5857344,SK,223,Adrea Caritey Mine,NULL,CL,NULL,NULL,Unknown,NULL,NULL,NULL,NULL,Abandoned Mines Remedial Action Program 1989 Annual Report,D*,NULL,NULL,NULL,NULL,NULL,NULL,2012
11109,49.114144,-105.4326214,SK,195,R.C. Marshall Mine,NULL,CL,NULL,NULL,Unknown,NULL,NULL,NULL,NULL,Abandoned Mines Remedial Action Program 1989 Annual Report,D*,NULL,NULL,NULL,NULL,NULL,NULL,2012
11110,49.154268,-105.3269334,SK,189,Anton Lebeck Mine,NULL,CL,NULL,NULL,Unknown,NULL,NULL,NULL,NULL,Abandoned Mines Remedial Action Program 1989 Annual Report,D*,NULL,NULL,NULL,NULL,NULL,NULL,2012
11111,49.244504,-105.4625584,SK,202,L. Harkness Mine,NULL,CL,NULL,NULL,Unknown,NULL,NULL,NULL,NULL,Abandoned Mines Remedial Action Program 1989 Annual Report,D*,NULL,NULL,NULL,NULL,NULL,NULL,2012
11112,49.444592,-105.6166646,SK,228,H. Dasy Mine,NULL,CL,NULL,NULL,Unknown,NULL,NULL,NULL,NULL,Abandoned Mines Remedial Action Program 1989 Annual Report,D*,NULL,NULL,NULL,NULL,NULL,NULL,2012
11113,49.004841,-105.1625326,SK,177,Jim Dixon Mine,NULL,CL,NULL,NULL,Unknown,NULL,NULL,NULL,NULL,Abandoned Mines Remedial Action Program 1989 Annual Report,D*,NULL,NULL,NULL,NULL,NULL,NULL,2012
11114,49.357253,-105.0227646,SK,176,William Hackett Mine,NULL,CL,NULL,NULL,Unknown,NULL,NULL,NULL,NULL,Abandoned Mines Remedial Action Program 1989 Annual Report,D*,NULL,NULL,NULL,NULL,NULL,NULL,2012
11115,49.266312,-105.0058066,SK,164,W.H. Treieaven (Eagle Butte) Mine,NULL,CL,NULL,NULL,Unknown,NULL,NULL,NULL,NULL,Abandoned Mines Remedial Action Program 1989 Annual Report,D*,NULL,NULL,NULL,NULL,NULL,NULL,2012
11116,49.008281,-104.7732786,SK,148,Armand La Cosre Mine,NULL,CL,NULL,NULL,Unknown,NULL,NULL,NULL,NULL,Abandoned Mines Remedial Action Program 1989 Annual Report,D*,NULL,NULL,NULL,NULL,NULL,NULL,2012
11117,49.089837,-103.0210016,SK,90,Thompson Mine,NULL,CL,NULL,NULL,Unknown,NULL,NULL,NULL,NULL,Abandoned Mines Remedial Action Program 1989 Annual Report,D*,NULL,NULL,NULL,NULL,NULL,NULL,2012
11118,49.056375,-102.8140666,SK,43,J. Siddall Mine,NULL,CL,NULL,NULL,Unknown,NULL,NULL,NULL,NULL,Abandoned Mines Remedial Action Program 1989 Annual Report,D*,NULL,NULL,NULL,NULL,NULL,NULL,2012
11119,49.05276,-102.8250756,SK,42,H.E. Poage Mine,NULL,CL,NULL,NULL,Unknown,NULL,NULL,NULL,NULL,Abandoned Mines Remedial Action Program 1989 Annual Report,D*,NULL,NULL,NULL,NULL,NULL,NULL,2012
11120,49.049146,-102.8140666,SK,41,E. Siddall Mine,NULL,CL,NULL,NULL,Unknown,NULL,NULL,NULL,NULL,Abandoned Mines Remedial Action Program 1989 Annual Report,D*,NULL,NULL,NULL,NULL,NULL,NULL,2012
11121,49.004921,-102.8027106,SK,4,Lars M. Anderson,NULL,CL,NULL,NULL,Unknown,NULL,NULL,NULL,NULL,Abandoned Mines Remedial Action Program 1989 Annual Report,D*,NULL,NULL,NULL,NULL,NULL,NULL,2012
11122,49.049235,-103.0040696,SK,71,N.W. Henderson Mine,NULL,CL,NULL,NULL,Unknown,NULL,NULL,NULL,NULL,Abandoned Mines Remedial Action Program 1989 Annual Report,D*,NULL,NULL,NULL,NULL,NULL,NULL,2012
11123,49.078722,-103.0319866,SK,79,Black Diamond Mine,NULL,CL,NULL,NULL,Unknown,NULL,NULL,NULL,NULL,Abandoned Mines Remedial Action Program 1989 Annual Report,D*,NULL,NULL,NULL,NULL,NULL,NULL,2012
11124,49.207876,-103.9529926,SK,132,F. West Mine,NULL,CL,NULL,NULL,Unknown,NULL,NULL,NULL,NULL,Abandoned Mines Remedial Action Program 1989 Annual Report,D*,NULL,NULL,NULL,NULL,NULL,NULL,2012
11125,49.139307,-102.8516906,SK,65,Biefait Commercial Company Mine,NULL,CL,NULL,NULL,Unknown,NULL,NULL,NULL,NULL,Abandoned Mines Remedial Action Program 1989 Annual Report,D*,NULL,NULL,NULL,NULL,NULL,NULL,2012
11126,49.071216,-103.0347644,SK,74,Unknown,NULL,CL,NULL,NULL,Unknown,NULL,NULL,NULL,NULL,Abandoned Mines Remedial Action Program 1989 Annual Report,D*,NULL,NULL,NULL,NULL,NULL,NULL,2012
11127,49.111809,-103.0013444,SK,101,W. Parry Mine,NULL,CL,NULL,NULL,Unknown,NULL,NULL,NULL,NULL,Abandoned Mines Remedial Action Program 1989 Annual Report,D*,NULL,NULL,NULL,NULL,NULL,NULL,2012
11128,49.141224,-103.0182204,SK,119,Unknown,NULL,CL,NULL,NULL,Unknown,NULL,NULL,NULL,NULL,Abandoned Mines Remedial Action Program 1989 Annual Report,D*,NULL,NULL,NULL,NULL,NULL,NULL,2012
11129,49.03350113,-102.848844,SK,38,Julius Langen Mine,NULL,CL,NULL,NULL,Unknown,NULL,NULL,NULL,NULL,Abandoned Mines Remedial Action Program 1989 Annual Report,D*,NULL,NULL,NULL,NULL,NULL,NULL,2012
11130,49.03350113,-102.848844,SK,39,J.S. Wilbur Mine,NULL,CL,NULL,NULL,Unknown,NULL,NULL,NULL,NULL,Abandoned Mines Remedial Action Program 1989 Annual Report,D*,NULL,NULL,NULL,NULL,NULL,NULL,2012
11131,49.10724349,-102.988559,SK,104,Unknown,NULL,CL,NULL,NULL,Unknown,NULL,NULL,NULL,NULL,Abandoned Mines Remedial Action Program 1989 Annual Report,D*,NULL,NULL,NULL,NULL,NULL,NULL,2012
11132,49.11085755,-102.98856,SK,105,Unknown,NULL,CL,NULL,NULL,Unknown,NULL,NULL,NULL,NULL,Abandoned Mines Remedial Action Program 1989 Annual Report,D*,NULL,NULL,NULL,NULL,NULL,NULL,2012
11133,49.12196576,-102.972026,SK,107,Estivan Coal and Brick Company Mines,NULL,CL,NULL,NULL,Unknown,NULL,NULL,NULL,NULL,Abandoned Mines Remedial Action Program 1989 Annual Report,D*,NULL,NULL,NULL,NULL,NULL,NULL,2012
11134,49.26178833,-105.00167,SK,163,Mrs. F. Treieaven Mine,NULL,CL,NULL,NULL,Unknown,NULL,NULL,NULL,NULL,Abandoned Mines Remedial Action Program 1989 Annual Report,D*,NULL,NULL,NULL,NULL,NULL,NULL,2012
11135,49.18907199,-105.432783,SK,199,T.D. Sloan Mine,NULL,CL,NULL,NULL,Unknown,NULL,NULL,NULL,NULL,Abandoned Mines Remedial Action Program 1989 Annual Report,D*,NULL,NULL,NULL,NULL,NULL,NULL,2012
11136,49.298108,-105.522671,SK,215,M. Gosselin Mine,NULL,CL,NULL,NULL,Unknown,NULL,NULL,NULL,NULL,Abandoned Mines Remedial Action Program 1989 Annual Report,D*,NULL,NULL,NULL,NULL,NULL,NULL,2012
11137,49.15315433,-105.225243,SK,185,G. Lamond and Cluchy Mine,NULL,CL,NULL,NULL,Unknown,NULL,NULL,NULL,NULL,Abandoned Mines Remedial Action Program 1989 Annual Report,D*,NULL,NULL,NULL,NULL,NULL,NULL,2012
11138,49.3088122,-104.082857,SK,133,Joe Doud Mine,NULL,CL,NULL,NULL,Unknown,NULL,NULL,NULL,NULL,Abandoned Mines Remedial Action Program 1989 Annual Report,D*,NULL,NULL,NULL,NULL,NULL,NULL,2012
11139,49.35454598,-105.018618,SK,173.3,T.A. Wakefield Mine,NULL,CL,NULL,NULL,Unknown,NULL,NULL,NULL,NULL,Abandoned Mines Remedial Action Program 1989 Annual Report,D*,NULL,NULL,NULL,NULL,NULL,NULL,2012
11140,49.07212817,-103.027866,SK,76,"Petterson, Lee, Flower and Flower Mine",NULL,CL,NULL,NULL,Unknown,NULL,NULL,NULL,NULL,Abandoned Mines Remedial Action Program 1989 Annual Report,D*,NULL,NULL,NULL,NULL,NULL,NULL,2012
11141,49.10149063,-102.966267,SK,87,William Gill Mines No.2 and No. 3,NULL,CL,NULL,NULL,Unknown,NULL,NULL,NULL,NULL,Abandoned Mines Remedial Action Program 1989 Annual Report,D*,NULL,NULL,NULL,NULL,NULL,NULL,2012
11142,49.0979467,-102.972113,SK,88,Peter Gemby Mine,NULL,CL,NULL,NULL,Unknown,NULL,NULL,NULL,NULL,Abandoned Mines Remedial Action Program 1989 Annual Report,D*,NULL,NULL,NULL,NULL,NULL,NULL,2012
11143,49.12017329,-102.972026,SK,108,Thomas D. Munro Mine,NULL,CL,NULL,NULL,Unknown,NULL,NULL,NULL,NULL,Abandoned Mines Remedial Action Program 1989 Annual Report,D*,NULL,NULL,NULL,NULL,NULL,NULL,2012
11144,49.12017329,-102.988561,SK,110,Wooloomooloo Coal Mine,NULL,CL,NULL,NULL,Unknown,NULL,NULL,NULL,NULL,Abandoned Mines Remedial Action Program 1989 Annual Report,D*,NULL,NULL,NULL,NULL,NULL,NULL,2012
11145,49.12744316,-103.067112,SK,116,M.P. Cossette Mine,NULL,CL,NULL,NULL,Unknown,NULL,NULL,NULL,NULL,Abandoned Mines Remedial Action Program 1989 Annual Report,D*,NULL,NULL,NULL,NULL,NULL,NULL,2012
11146,49.00561439,-104.802453,SK,146,James Marshall Mine,NULL,CL,NULL,NULL,Unknown,NULL,NULL,NULL,NULL,Abandoned Mines Remedial Action Program 1989 Annual Report,D*,NULL,NULL,NULL,NULL,NULL,NULL,2012
11147,49.20536573,-104.783112,SK,149,James Wilson Mine,NULL,CL,NULL,NULL,Unknown,NULL,NULL,NULL,NULL,Abandoned Mines Remedial Action Program 1989 Annual Report,D*,NULL,NULL,NULL,NULL,NULL,NULL,2012
11148,49.23060826,-104.856322,SK,153,Edward Tage Mine,NULL,CL,NULL,NULL,Unknown,NULL,NULL,NULL,NULL,Abandoned Mines Remedial Action Program 1989 Annual Report,D*,NULL,NULL,NULL,NULL,NULL,NULL,2012
11149,49.15156471,-105.342086,SK,188,Anton Berge Mine,NULL,CL,NULL,NULL,Unknown,NULL,NULL,NULL,NULL,Abandoned Mines Remedial Action Program 1989 Annual Report,D*,NULL,NULL,NULL,NULL,NULL,NULL,2012
11150,49.31797665,-105.556426,SK,217,William Vallee Mine,NULL,CL,NULL,NULL,Unknown,NULL,NULL,NULL,NULL,Abandoned Mines Remedial Action Program 1989 Annual Report,D*,NULL,NULL,NULL,NULL,NULL,NULL,2012
11151,49.30714385,-105.545071,SK,218,A.J.R. Rhodes Mine,NULL,CL,NULL,NULL,Unknown,NULL,NULL,NULL,NULL,Abandoned Mines Remedial Action Program 1989 Annual Report,D*,NULL,NULL,NULL,NULL,NULL,NULL,2012
11152,49.47644529,-105.5830246,SK,229,C.K. Sjodin Mine,NULL,CL,NULL,NULL,Unknown,NULL,NULL,NULL,NULL,Abandoned Mines Remedial Action Program 1989 Annual Report,D*,NULL,NULL,NULL,NULL,NULL,NULL,2012
11153,49.30172307,-105.5143552,SK,216,J. and E. Paulhus Mine,NULL,CL,NULL,NULL,Unknown,NULL,NULL,NULL,NULL,Abandoned Mines Remedial Action Program 1989 Annual Report,D*,NULL,NULL,NULL,NULL,NULL,NULL,2012
11154,49.2545542,-105.4091166,SK,209,W.J. Giblet Mine,NULL,CL,NULL,NULL,Unknown,NULL,NULL,NULL,NULL,Abandoned Mines Remedial Action Program 1989 Annual Report,D*,NULL,NULL,NULL,NULL,NULL,NULL,2012
11155,49.25812426,-105.4315086,SK,208,C.H. Waldron Mine,NULL,CL,NULL,NULL,Unknown,NULL,NULL,NULL,NULL,Abandoned Mines Remedial Action Program 1989 Annual Report,D*,NULL,NULL,NULL,NULL,NULL,NULL,2012
11156,49.06291867,-102.7856586,SK,16,Brooks and Paluikis Mine,NULL,CL,NULL,NULL,Unknown,NULL,NULL,NULL,NULL,Abandoned Mines Remedial Action Program 1989 Annual Report,D*,NULL,NULL,NULL,NULL,NULL,NULL,2012
11157,49.30715385,-105.5185414,SK,220,John V. Hueval Mine,NULL,CL,NULL,NULL,Unknown,NULL,NULL,NULL,NULL,Abandoned Mines Remedial Action Program 1989 Annual Report,D*,NULL,NULL,NULL,NULL,NULL,NULL,2012
11158,49.33809274,-105.0310854,SK,172,August Fellman Mine,NULL,CL,NULL,NULL,Unknown,NULL,NULL,NULL,NULL,Abandoned Mines Remedial Action Program 1989 Annual Report,D*,NULL,NULL,NULL,NULL,NULL,NULL,2012
11159,49.34714611,-105.0340996,SK,169,R. Howe Mine,NULL,CL,NULL,NULL,Unknown,NULL,NULL,NULL,NULL,Abandoned Mines Remedial Action Program 1989 Annual Report,D*,NULL,NULL,NULL,NULL,NULL,NULL,2012
11160,49.25981672,-105.0002706,SK,162,W.J. Pitt Mine,NULL,CL,NULL,NULL,Unknown,NULL,NULL,NULL,NULL,Abandoned Mines Remedial Action Program 1989 Annual Report,D*,NULL,NULL,NULL,NULL,NULL,NULL,2012
11161,49.20713732,-104.7959314,SK,152,Richard Appleby Mine,NULL,CL,NULL,NULL,Unknown,NULL,NULL,NULL,NULL,Abandoned Mines Remedial Action Program 1989 Annual Report,D*,NULL,NULL,NULL,NULL,NULL,NULL,2012
11162,49.16710543,-103.0292654,SK,127,High Grade Mine,NULL,CL,NULL,NULL,Unknown,NULL,NULL,NULL,NULL,Abandoned Mines Remedial Action Program 1989 Annual Report,D*,NULL,NULL,NULL,NULL,NULL,NULL,2012
11163,49.15692862,-103.0602286,SK,125,E. Atherton Mine,NULL,CL,NULL,NULL,Unknown,NULL,NULL,NULL,NULL,Abandoned Mines Remedial Action Program 1989 Annual Report,D*,NULL,NULL,NULL,NULL,NULL,NULL,2012
11164,49.14574982,-103.0237354,SK,120,C. Nordstrom Mine,NULL,CL,NULL,NULL,Unknown,NULL,NULL,NULL,NULL,Abandoned Mines Remedial Action Program 1989 Annual Report,D*,NULL,NULL,NULL,NULL,NULL,NULL,2012
11165,49.11837069,-103.0292424,SK,113,Lomnicki Mine,NULL,CL,NULL,NULL,Unknown,NULL,NULL,NULL,NULL,Abandoned Mines Remedial Action Program 1989 Annual Report,D*,NULL,NULL,NULL,NULL,NULL,NULL,2012
11166,49.10728349,-103.0123654,SK,99,J.Bastian Mine,NULL,CL,NULL,NULL,Unknown,NULL,NULL,NULL,NULL,Abandoned Mines Remedial Action Program 1989 Annual Report,D*,NULL,NULL,NULL,NULL,NULL,NULL,2012
11167,49.346229,-105.0102992,SK,173.1,T.A. Wakefield Mine,NULL,CL,NULL,NULL,Unknown,NULL,NULL,NULL,NULL,Abandoned Mines Remedial Action Program 1989 Annual Report,D*,NULL,NULL,NULL,NULL,NULL,NULL,2012
11168,49.35636207,-105.0451996,SK,173.2,T.A. Wakefield Mine,NULL,CL,NULL,NULL,Unknown,NULL,NULL,NULL,NULL,Abandoned Mines Remedial Action Program 1989 Annual Report,D*,NULL,NULL,NULL,NULL,NULL,NULL,2012
11169,49.08126401,-102.7523026,SK,24.1,John Mitchell Mines No. 1,NULL,CL,NULL,NULL,Unknown,NULL,NULL,NULL,NULL,Abandoned Mines Remedial Action Program 1989 Annual Report,D*,NULL,NULL,NULL,NULL,NULL,NULL,2012
11170,49.08126401,-102.7550874,SK,24.2,John Mitchell Mines No. 2,NULL,CL,NULL,NULL,Unknown,NULL,NULL,NULL,NULL,Abandoned Mines Remedial Action Program 1989 Annual Report,D*,NULL,NULL,NULL,NULL,NULL,NULL,2012
11171,49.08308797,-102.7495804,SK,24.3,John Mitchell Mines No. 3,NULL,CL,NULL,NULL,Unknown,NULL,NULL,NULL,NULL,Abandoned Mines Remedial Action Program 1989 Annual Report,D*,NULL,NULL,NULL,NULL,NULL,NULL,2012
11172,49.50554383,-105.6124166,SK,231,A.H. Tomkins Mine,NULL,CL,NULL,NULL,Unknown,NULL,NULL,NULL,NULL,Abandoned Mines Remedial Action Program 1989 Annual Report,D*,NULL,NULL,NULL,NULL,NULL,NULL,2012
11173,49.38180854,-105.5984418,SK,225,Emile Buffard Mine,NULL,CL,NULL,NULL,Unknown,NULL,NULL,NULL,NULL,Abandoned Mines Remedial Action Program 1989 Annual Report,D*,NULL,NULL,NULL,NULL,NULL,NULL,2012
11174,49.3791,-105.6094932,SK,224,J.P. Bonneau Mine,NULL,CL,NULL,NULL,Unknown,NULL,NULL,NULL,NULL,Abandoned Mines Remedial Action Program 1989 Annual Report,D*,NULL,NULL,NULL,NULL,NULL,NULL,2012
11175,49.342584,-105.5592258,SK,222,Philippe Daigle (Meeker) Mine,NULL,CL,NULL,NULL,Unknown,NULL,NULL,NULL,NULL,Abandoned Mines Remedial Action Program 1989 Annual Report,D*,NULL,NULL,NULL,NULL,NULL,NULL,2012
11176,49.092562,-105.6065398,SK,214,Poplar River Mine,NULL,CL,NULL,NULL,Unknown,NULL,NULL,NULL,NULL,Abandoned Mines Remedial Action Program 1989 Annual Report,D*,NULL,NULL,NULL,NULL,NULL,NULL,2012
11177,49.6064344,-105.430433,SK,213,J. Hawes Mine,NULL,CL,NULL,NULL,Unknown,NULL,NULL,NULL,NULL,Abandoned Mines Remedial Action Program 1989 Annual Report,D*,NULL,NULL,NULL,NULL,NULL,NULL,2012
11178,49.43826243,-105.4094656,SK,211,Henry Stromme Mine,NULL,CL,NULL,NULL,Unknown,NULL,NULL,NULL,NULL,Abandoned Mines Remedial Action Program 1989 Annual Report,D*,NULL,NULL,NULL,NULL,NULL,NULL,2012
11179,49.25362169,-105.416319,SK,207,Henry Peteson and Ray Lundregan Mine,NULL,CL,NULL,NULL,Unknown,NULL,NULL,NULL,NULL,Abandoned Mines Remedial Action Program 1989 Annual Report,D*,NULL,NULL,NULL,NULL,NULL,NULL,2012
11180,49.25714251,-105.4749582,SK,206,Walter Leavitt (Square Deal) Mine,NULL,CL,NULL,NULL,Unknown,NULL,NULL,NULL,NULL,Abandoned Mines Remedial Action Program 1989 Annual Report,D*,NULL,NULL,NULL,NULL,NULL,NULL,2012
11181,49.31528042,-105.5339884,SK,219,Alfred Therrien Mine,NULL,CL,NULL,NULL,Unknown,NULL,NULL,NULL,NULL,Abandoned Mines Remedial Action Program 1989 Annual Report,D*,NULL,NULL,NULL,NULL,NULL,NULL,2012
11182,49.25625379,-105.4749572,SK,205,C.H. Waldron Mine,NULL,CL,NULL,NULL,Unknown,NULL,NULL,NULL,NULL,Abandoned Mines Remedial Action Program 1989 Annual Report,D*,NULL,NULL,NULL,NULL,NULL,NULL,2012
11183,49.25352737,-105.472215,SK,204,E. Noble Mine,NULL,CL,NULL,NULL,Unknown,NULL,NULL,NULL,NULL,Abandoned Mines Remedial Action Program 1989 Annual Report,D*,NULL,NULL,NULL,NULL,NULL,NULL,2012
11184,49.255345,-105.4777666,SK,203,Cifford Shier Mine,NULL,CL,NULL,NULL,Unknown,NULL,NULL,NULL,NULL,Abandoned Mines Remedial Action Program 1989 Annual Report,D*,NULL,NULL,NULL,NULL,NULL,NULL,2012
11185,49.24406416,-105.4639508,SK,201,Emil Johnson Mine,NULL,CL,NULL,NULL,Unknown,NULL,NULL,NULL,NULL,Abandoned Mines Remedial Action Program 1989 Annual Report,D*,NULL,NULL,NULL,NULL,NULL,NULL,2012
11186,49.15247241,-105.3464296,SK,197,Oscar Frostad Mine,NULL,CL,NULL,NULL,Unknown,NULL,NULL,NULL,NULL,Abandoned Mines Remedial Action Program 1989 Annual Report,D*,NULL,NULL,NULL,NULL,NULL,NULL,2012
11187,49.18450983,-105.2746996,SK,190,Samuel Nelson (H. Pohl) Mine,NULL,CL,NULL,NULL,Unknown,NULL,NULL,NULL,NULL,Abandoned Mines Remedial Action Program 1989 Annual Report,D*,NULL,NULL,NULL,NULL,NULL,NULL,2012
11188,49.14969327,-105.3170598,SK,187,Chester Wright Mine,NULL,CL,NULL,NULL,Unknown,NULL,NULL,NULL,NULL,Abandoned Mines Remedial Action Program 1989 Annual Report,D*,NULL,NULL,NULL,NULL,NULL,NULL,2012
11189,49.14878252,-105.3211824,SK,186,Haldor Lebeck Mine,NULL,CL,NULL,NULL,Unknown,NULL,NULL,NULL,NULL,Abandoned Mines Remedial Action Program 1989 Annual Report,D*,NULL,NULL,NULL,NULL,NULL,NULL,2012
11190,49.39181041,-105.1166711,SK,181,William Christenson Mine,NULL,CL,NULL,NULL,Unknown,NULL,NULL,NULL,NULL,Abandoned Mines Remedial Action Program 1989 Annual Report,D*,NULL,NULL,NULL,NULL,NULL,NULL,2012
11191,49.06132231,-105.1543104,SK,179,Martin Rossier (Sorenson) Mine,NULL,CL,NULL,NULL,Unknown,NULL,NULL,NULL,NULL,Abandoned Mines Remedial Action Program 1989 Annual Report,D*,NULL,NULL,NULL,NULL,NULL,NULL,2012
11192,49.35182499,-105.0200104,SK,175,E.E. Byers Mine,NULL,CL,NULL,NULL,Unknown,NULL,NULL,NULL,NULL,Abandoned Mines Remedial Action Program 1989 Annual Report,D*,NULL,NULL,NULL,NULL,NULL,NULL,2012
11193,49.335385,-105.0269062,SK,170,John Forsberg Mine,NULL,CL,NULL,NULL,Unknown,NULL,NULL,NULL,NULL,Abandoned Mines Remedial Action Program 1989 Annual Report,D*,NULL,NULL,NULL,NULL,NULL,NULL,2012
11194,49.46647,-105.3632262,SK,191,E. Scott Mine,NULL,CL,NULL,NULL,Unknown,NULL,NULL,NULL,NULL,Abandoned Mines Remedial Action Program 1989 Annual Report,D*,NULL,NULL,NULL,NULL,NULL,NULL,2012
11195,49.28618158,-105.0116566,SK,168,Gorden Mine,NULL,CL,NULL,NULL,Unknown,NULL,NULL,NULL,NULL,Abandoned Mines Remedial Action Program 1989 Annual Report,D*,NULL,NULL,NULL,NULL,NULL,NULL,2012
11196,49.287998,-105.0144414,SK,167,R. M. Strome Mine,NULL,CL,NULL,NULL,Unknown,NULL,NULL,NULL,NULL,Abandoned Mines Remedial Action Program 1989 Annual Report,D*,NULL,NULL,NULL,NULL,NULL,NULL,2012
11197,49.28618158,-105.013049,SK,166,John Cummings Mine,NULL,CL,NULL,NULL,Unknown,NULL,NULL,NULL,NULL,Abandoned Mines Remedial Action Program 1989 Annual Report,D*,NULL,NULL,NULL,NULL,NULL,NULL,2012
11198,49.1046919,-104.9721322,SK,161,G.R. Morrow Mine,NULL,CL,NULL,NULL,Unknown,NULL,NULL,NULL,NULL,Abandoned Mines Remedial Action Program 1989 Annual Report,D*,NULL,NULL,NULL,NULL,NULL,NULL,2012
11199,49.06849157,-105.0707934,SK,159,T.J. Wyatt Mine,NULL,CL,NULL,NULL,Unknown,NULL,NULL,NULL,NULL,Abandoned Mines Remedial Action Program 1989 Annual Report,D*,NULL,NULL,NULL,NULL,NULL,NULL,2012
11200,49.37960163,-104.9037882,SK,157,H. Axten and D. Slater Mine,NULL,CL,NULL,NULL,Unknown,NULL,NULL,NULL,NULL,Abandoned Mines Remedial Action Program 1989 Annual Report,D*,NULL,NULL,NULL,NULL,NULL,NULL,2012
11201,49.37825648,-104.9093578,SK,156,A. Wagner and G. Mattson Mine,NULL,CL,NULL,NULL,Unknown,NULL,NULL,NULL,NULL,Abandoned Mines Remedial Action Program 1989 Annual Report,D*,NULL,NULL,NULL,NULL,NULL,NULL,2012
11202,49.33898,-104.9148988,SK,155,John Cummings Mine,NULL,CL,NULL,NULL,Unknown,NULL,NULL,NULL,NULL,Abandoned Mines Remedial Action Program 1989 Annual Report,D*,NULL,NULL,NULL,NULL,NULL,NULL,2012
11203,49.338959,-104.9206462,SK,154,J.A. Johnson (Forsberg) Mine,NULL,CL,NULL,NULL,Unknown,NULL,NULL,NULL,NULL,Abandoned Mines Remedial Action Program 1989 Annual Report,D*,NULL,NULL,NULL,NULL,NULL,NULL,2012
11204,49.00918833,-104.7511352,SK,147,Sjorgen and Prentice Mine,NULL,CL,NULL,NULL,Unknown,NULL,NULL,NULL,NULL,Abandoned Mines Remedial Action Program 1989 Annual Report,D*,NULL,NULL,NULL,NULL,NULL,NULL,2012
11205,49.24531599,-104.5942564,SK,145,Peter Anderson Mine,NULL,CL,NULL,NULL,Unknown,NULL,NULL,NULL,NULL,Abandoned Mines Remedial Action Program 1989 Annual Report,D*,NULL,NULL,NULL,NULL,NULL,NULL,2012
11206,49.19075212,-104.4570116,SK,143,Heskin Slater Mine,NULL,CL,NULL,NULL,Unknown,NULL,NULL,NULL,NULL,Abandoned Mines Remedial Action Program 1989 Annual Report,D*,NULL,NULL,NULL,NULL,NULL,NULL,2012
11207,49.1916621,-104.469444,SK,142,R. Eidsness and B. Tangedel (Diamond) Mine,NULL,CL,NULL,NULL,Unknown,NULL,NULL,NULL,NULL,Abandoned Mines Remedial Action Program 1989 Annual Report,D*,NULL,NULL,NULL,NULL,NULL,NULL,2012
11208,49.182625,-104.4611772,SK,141,Thomas Culbert Mine,NULL,CL,NULL,NULL,Unknown,NULL,NULL,NULL,NULL,Abandoned Mines Remedial Action Program 1989 Annual Report,D*,NULL,NULL,NULL,NULL,NULL,NULL,2012
11209,49.32272614,-104.0972222,SK,140,J. Temple Mine,NULL,CL,NULL,NULL,Unknown,NULL,NULL,NULL,NULL,Abandoned Mines Remedial Action Program 1989 Annual Report,D*,NULL,NULL,NULL,NULL,NULL,NULL,2012
11210,49.32361847,-104.0972232,SK,139,L.D. Pettis Mine,NULL,CL,NULL,NULL,Unknown,NULL,NULL,NULL,NULL,Abandoned Mines Remedial Action Program 1989 Annual Report,D*,NULL,NULL,NULL,NULL,NULL,NULL,2012
11211,49.31514942,-104.088392,SK,138,E. Shad mine,NULL,CL,NULL,NULL,Unknown,NULL,NULL,NULL,NULL,Abandoned Mines Remedial Action Program 1989 Annual Report,D*,NULL,NULL,NULL,NULL,NULL,NULL,2012
11212,49.31151851,-104.0800732,SK,137,William Dee Mine,NULL,CL,NULL,NULL,Unknown,NULL,NULL,NULL,NULL,Abandoned Mines Remedial Action Program 1989 Annual Report,D*,NULL,NULL,NULL,NULL,NULL,NULL,2012
11213,49.30792069,-104.0745758,SK,136,W.A. Turner Mine,NULL,CL,NULL,NULL,Unknown,NULL,NULL,NULL,NULL,Abandoned Mines Remedial Action Program 1989 Annual Report,D*,NULL,NULL,NULL,NULL,NULL,NULL,2012
11214,49.3088122,-104.0745758,SK,135,W.J. Ewing Mine,NULL,CL,NULL,NULL,Unknown,NULL,NULL,NULL,NULL,Abandoned Mines Remedial Action Program 1989 Annual Report,D*,NULL,NULL,NULL,NULL,NULL,NULL,2012
11215,49.3088122,-104.0759316,SK,134,Andrew Lapolak Mine,NULL,CL,NULL,NULL,Unknown,NULL,NULL,NULL,NULL,Abandoned Mines Remedial Action Program 1989 Annual Report,D*,NULL,NULL,NULL,NULL,NULL,NULL,2012
11216,49.21247432,-103.0980204,SK,129,Henry S.Fuller Mines,NULL,CL,NULL,NULL,Unknown,NULL,NULL,NULL,NULL,Abandoned Mines Remedial Action Program 1989 Annual Report,D*,NULL,NULL,NULL,NULL,NULL,NULL,2012
11217,49.15506737,-103.0405538,SK,124,Earny Snider Mines,NULL,CL,NULL,NULL,Unknown,NULL,NULL,NULL,NULL,Abandoned Mines Remedial Action Program 1989 Annual Report,D*,NULL,NULL,NULL,NULL,NULL,NULL,2012
11218,49.1514413,-103.0209526,SK,123,Unknown,NULL,CL,NULL,NULL,Unknown,NULL,NULL,NULL,NULL,Abandoned Mines Remedial Action Program 1989 Annual Report,D*,NULL,NULL,NULL,NULL,NULL,NULL,2012
11219,49.12741363,-103.0712326,SK,118,William Lloyd Mine,NULL,CL,NULL,NULL,Unknown,NULL,NULL,NULL,NULL,Abandoned Mines Remedial Action Program 1989 Annual Report,D*,NULL,NULL,NULL,NULL,NULL,NULL,2012
11220,49.122877,-102.9747532,SK,111,Unknown,NULL,CL,NULL,NULL,Unknown,NULL,NULL,NULL,NULL,Abandoned Mines Remedial Action Program 1989 Annual Report,D*,NULL,NULL,NULL,NULL,NULL,NULL,2012
11221,49.12017329,-102.9858338,SK,109,Rooks and McNeil Mine,NULL,CL,NULL,NULL,Unknown,NULL,NULL,NULL,NULL,Abandoned Mines Remedial Action Program 1989 Annual Report,D*,NULL,NULL,NULL,NULL,NULL,NULL,2012
11222,49.11266143,-102.9509958,SK,106,Bourquin Brothers (White Hope) Mine,NULL,CL,NULL,NULL,Unknown,NULL,NULL,NULL,NULL,Abandoned Mines Remedial Action Program 1989 Annual Report,D*,NULL,NULL,NULL,NULL,NULL,NULL,2012
11223,49.10636311,-102.977537,SK,103,G. Parkinson Mine,NULL,CL,NULL,NULL,Unknown,NULL,NULL,NULL,NULL,Abandoned Mines Remedial Action Program 1989 Annual Report,D*,NULL,NULL,NULL,NULL,NULL,NULL,2012
11224,49.10458,-102.9971662,SK,97,Unknown,NULL,CL,NULL,NULL,Unknown,NULL,NULL,NULL,NULL,Abandoned Mines Remedial Action Program 1989 Annual Report,D*,NULL,NULL,NULL,NULL,NULL,NULL,2012
11225,49.100681,-103.0251798,SK,95,W. Hydynka and T. Mandzuk Mine,NULL,CL,NULL,NULL,Unknown,NULL,NULL,NULL,NULL,Abandoned Mines Remedial Action Program 1989 Annual Report,D*,NULL,NULL,NULL,NULL,NULL,NULL,2012
11226,49.08892515,-103.0306868,SK,92,Blackburn and Peterson Mine,NULL,CL,NULL,NULL,Unknown,NULL,NULL,NULL,NULL,Abandoned Mines Remedial Action Program 1989 Annual Report,D*,NULL,NULL,NULL,NULL,NULL,NULL,2012
11227,49.09882668,-102.9748372,SK,89,W.H.A. Nicholson Mine,NULL,CL,NULL,NULL,Unknown,NULL,NULL,NULL,NULL,Abandoned Mines Remedial Action Program 1989 Annual Report,D*,NULL,NULL,NULL,NULL,NULL,NULL,2012
11228,49.097035,-102.9693282,SK,86,J. Olshanoski Mine,NULL,CL,NULL,NULL,Unknown,NULL,NULL,NULL,NULL,Abandoned Mines Remedial Action Program 1989 Annual Report,D*,NULL,NULL,NULL,NULL,NULL,NULL,2012
11229,49.09514055,-102.9525228,SK,84,Jenish Brothers Mine,NULL,CL,NULL,NULL,Unknown,NULL,NULL,NULL,NULL,Abandoned Mines Remedial Action Program 1989 Annual Report,D*,NULL,NULL,NULL,NULL,NULL,NULL,2012
11230,49.08781279,-103.0139979,SK,83,Manitoba and Sask Coal Co. (Boundary Dam) Mine,NULL,CL,NULL,NULL,Unknown,NULL,NULL,NULL,NULL,Abandoned Mines Remedial Action Program 1989 Annual Report,D*,NULL,NULL,NULL,NULL,NULL,NULL,2012
11231,49.09904979,-103.0585961,SK,82,Unity Coal Company Mine,NULL,CL,NULL,NULL,Unknown,NULL,NULL,NULL,NULL,Abandoned Mines Remedial Action Program 1989 Annual Report,D*,NULL,NULL,NULL,NULL,NULL,NULL,2012
11232,49.0868629,-103.0347744,SK,81,Hans K. Anderson Mine,NULL,CL,NULL,NULL,Unknown,NULL,NULL,NULL,NULL,Abandoned Mines Remedial Action Program 1989 Annual Report,D*,NULL,NULL,NULL,NULL,NULL,NULL,2012
11233,49.08321519,-103.0319896,SK,80,Tisdale Mine,NULL,CL,NULL,NULL,Unknown,NULL,NULL,NULL,NULL,Abandoned Mines Remedial Action Program 1989 Annual Report,D*,NULL,NULL,NULL,NULL,NULL,NULL,2012
11234,49.0760141,-103.0461334,SK,78,Bridge No. 2 Mine,NULL,CL,NULL,NULL,Unknown,NULL,NULL,NULL,NULL,Abandoned Mines Remedial Action Program 1989 Annual Report,D*,NULL,NULL,NULL,NULL,NULL,NULL,2012
11235,49.0693916,-103.033372,SK,75,Unknown,NULL,CL,NULL,NULL,Unknown,NULL,NULL,NULL,NULL,Abandoned Mines Remedial Action Program 1989 Annual Report,D*,NULL,NULL,NULL,NULL,NULL,NULL,2012
11236,49.0693916,-103.0347644,SK,73,Neil Anderson (Kjerson) Mine,NULL,CL,NULL,NULL,Unknown,NULL,NULL,NULL,NULL,Abandoned Mines Remedial Action Program 1989 Annual Report,D*,NULL,NULL,NULL,NULL,NULL,NULL,2012
11237,49.06216234,-103.0182454,SK,72,Samuel A. Lee Mine,NULL,CL,NULL,NULL,Unknown,NULL,NULL,NULL,NULL,Abandoned Mines Remedial Action Program 1989 Annual Report,D*,NULL,NULL,NULL,NULL,NULL,NULL,2012
11238,49.03901078,-102.9899894,SK,70,A.W. Hoefer Mine,NULL,CL,NULL,NULL,Unknown,NULL,NULL,NULL,NULL,Abandoned Mines Remedial Action Program 1989 Annual Report,D*,NULL,NULL,NULL,NULL,NULL,NULL,2012
11239,49.1431575,-102.8797719,SK,69,Battle River Coal Company (Klimax Mine),NULL,CL,NULL,NULL,Unknown,NULL,NULL,NULL,NULL,Abandoned Mines Remedial Action Program 1989 Annual Report,D*,NULL,NULL,NULL,NULL,NULL,NULL,2012
11240,49.124543,-102.8348301,SK,68,Eastern Collieries,NULL,CL,NULL,NULL,Unknown,NULL,NULL,NULL,NULL,Abandoned Mines Remedial Action Program 1989 Annual Report,D*,NULL,NULL,NULL,NULL,NULL,NULL,2012
11241,49.14352496,-102.865708,SK,64,North West (Dan Bozak) Mine,NULL,CL,NULL,NULL,Unknown,NULL,NULL,NULL,NULL,Abandoned Mines Remedial Action Program 1989 Annual Report,D*,NULL,NULL,NULL,NULL,NULL,NULL,2012
11242,49.1429373,-102.8698296,SK,63,J. Hamilton Mine,NULL,CL,NULL,NULL,Unknown,NULL,NULL,NULL,NULL,Abandoned Mines Remedial Action Program 1989 Annual Report,D*,NULL,NULL,NULL,NULL,NULL,NULL,2012
11243,49.14384816,-102.8726144,SK,62,William Stefuik Mine,NULL,CL,NULL,NULL,Unknown,NULL,NULL,NULL,NULL,Abandoned Mines Remedial Action Program 1989 Annual Report,D*,NULL,NULL,NULL,NULL,NULL,NULL,2012
11244,49.13661903,-102.8657446,SK,61,Cresent Collieries,NULL,CL,NULL,NULL,Unknown,NULL,NULL,NULL,NULL,Abandoned Mines Remedial Action Program 1989 Annual Report,D*,NULL,NULL,NULL,NULL,NULL,NULL,2012
11245,49.1210555,-102.943945,SK,60,Unknown,NULL,CL,NULL,NULL,Unknown,NULL,NULL,NULL,NULL,Abandoned Mines Remedial Action Program 1989 Annual Report,D*,NULL,NULL,NULL,NULL,NULL,NULL,2012
11246,49.12815376,-102.8488906,SK,59,Havanah Collieries,NULL,CL,NULL,NULL,Unknown,NULL,NULL,NULL,NULL,Abandoned Mines Remedial Action Program 1989 Annual Report,D*,NULL,NULL,NULL,NULL,NULL,NULL,2012
11247,49.10106212,-102.9301628,SK,54,Paul Underfinger Mines,NULL,CL,NULL,NULL,Unknown,NULL,NULL,NULL,NULL,Abandoned Mines Remedial Action Program 1989 Annual Report,D*,NULL,NULL,NULL,NULL,NULL,NULL,2012
11248,49.09518255,-102.9411202,SK,53,T. Parkinson and J. Foster Mine,NULL,CL,NULL,NULL,Unknown,NULL,NULL,NULL,NULL,Abandoned Mines Remedial Action Program 1989 Annual Report,D*,NULL,NULL,NULL,NULL,NULL,NULL,2012
11249,49.09878768,-102.8854108,SK,52,J.G. Peterson Mine,NULL,CL,NULL,NULL,Unknown,NULL,NULL,NULL,NULL,Abandoned Mines Remedial Action Program 1989 Annual Report,D*,NULL,NULL,NULL,NULL,NULL,NULL,2012
11250,49.05837696,-102.890812,SK,46,Old Mac Coal Company,NULL,CL,NULL,NULL,Unknown,NULL,NULL,NULL,NULL,Abandoned Mines Remedial Action Program 1989 Annual Report,D*,NULL,NULL,NULL,NULL,NULL,NULL,2012
11251,49.05930361,-102.8278264,SK,45,Alfonse Baniulas mine,NULL,CL,NULL,NULL,Unknown,NULL,NULL,NULL,NULL,Abandoned Mines Remedial Action Program 1989 Annual Report,D*,NULL,NULL,NULL,NULL,NULL,NULL,2012
11252,49.05728745,-102.8168514,SK,44,Short Creek Coal Mining Company,NULL,CL,NULL,NULL,Unknown,NULL,NULL,NULL,NULL,Abandoned Mines Remedial Action Program 1989 Annual Report,D*,NULL,NULL,NULL,NULL,NULL,NULL,2012
11253,49.152234,-102.7845098,SK,35,Cresent Mine,NULL,CL,NULL,NULL,Unknown,NULL,NULL,NULL,NULL,Abandoned Mines Remedial Action Program 1989 Annual Report,D*,NULL,NULL,NULL,NULL,NULL,NULL,2012
11254,49.14020209,-102.8012882,SK,34,Coates Mine,NULL,CL,NULL,NULL,Unknown,NULL,NULL,NULL,NULL,Abandoned Mines Remedial Action Program 1989 Annual Report,D*,NULL,NULL,NULL,NULL,NULL,NULL,2012
11255,49.141113,-102.7957742,SK,33,Wheeler and Enmark Mine,NULL,CL,NULL,NULL,Unknown,NULL,NULL,NULL,NULL,Abandoned Mines Remedial Action Program 1989 Annual Report,D*,NULL,NULL,NULL,NULL,NULL,NULL,2012
11256,49.13205275,-102.8012684,SK,32,Bienfait Mine,NULL,CL,NULL,NULL,Unknown,NULL,NULL,NULL,NULL,Abandoned Mines Remedial Action Program 1989 Annual Report,D*,NULL,NULL,NULL,NULL,NULL,NULL,2012
11257,49.08307397,-102.7299056,SK,25,W.L. Hamilton Mine,NULL,CL,NULL,NULL,Unknown,NULL,NULL,NULL,NULL,Abandoned Mines Remedial Action Program 1989 Annual Report,D*,NULL,NULL,NULL,NULL,NULL,NULL,2012
11258,49.0692356,-102.7691426,SK,19,E.J. Sinclair Mine,NULL,CL,NULL,NULL,Unknown,NULL,NULL,NULL,NULL,Abandoned Mines Remedial Action Program 1989 Annual Report,D*,NULL,NULL,NULL,NULL,NULL,NULL,2012
11259,49.06626789,-102.7884454,SK,18,Pierce Rock Mine,NULL,CL,NULL,NULL,Unknown,NULL,NULL,NULL,NULL,Abandoned Mines Remedial Action Program 1989 Annual Report,D*,NULL,NULL,NULL,NULL,NULL,NULL,2012
11260,49.06200633,-102.7884434,SK,17,Thistle Coal Mine,NULL,CL,NULL,NULL,Unknown,NULL,NULL,NULL,NULL,Abandoned Mines Remedial Action Program 1989 Annual Report,D*,NULL,NULL,NULL,NULL,NULL,NULL,2012
