{
  "type": "FeatureCollection",
  "features": [
    {
      "type": "Feature",
      "geometry": {
        "type": "Point",
        "coordinates": [
          -60.27305382,
          46.30161264
        ]
      },
      "properties": {
        "name": "Cape Crushing Company Ltd. Merritt Point Surface Mine",
        "jurisdiction": "NS",
        "status": "NULL",
        "commodity": "CL",
        "mineType": "Surface",
        "latitude": 46.30161264,
        "longitude": -60.27305382
      }
    },
    {
      "type": "Feature",
      "geometry": {
        "type": "Point",
        "coordinates": [
          -60.27864804,
          46.31188038
        ]
      },
      "properties": {
        "name": "Cape Breton Development Corporation Alder Point Surface Mine",
        "jurisdiction": "NS",
        "status": "NULL",
        "commodity": "CL",
        "mineType": "Surface",
        "latitude": 46.31188038,
        "longitude": -60.27864804
      }
    },
    {
      "type": "Feature",
      "geometry": {
        "type": "Point",
        "coordinates": [
          -64.14757287,
          45.7897679
        ]
      },
      "properties": {
        "name": "Shipley (Kinnear) Quarry",
        "jurisdiction": "NS",
        "status": "NULL",
        "commodity": "LS",
        "mineType": "Surface",
        "latitude": 45.7897679,
        "longitude": -64.14757287
      }
    },
    {
      "type": "Feature",
      "geometry": {
        "type": "Point",
        "coordinates": [
          -64.11967087,
          45.02748146
        ]
      },
      "properties": {
        "name": "Newport Plaster Mining & Manufacturing Company Avondale (Tunnel) Quarry",
        "jurisdiction": "NS",
        "status": "NULL",
        "commodity": "GY",
        "mineType": "Surface",
        "latitude": 45.02748146,
        "longitude": -64.11967087
      }
    },
    {
      "type": "Feature",
      "geometry": {
        "type": "Point",
        "coordinates": [
          -64.09711715,
          45.01570086
        ]
      },
      "properties": {
        "name": "Smoot Quarry",
        "jurisdiction": "NS",
        "status": "NULL",
        "commodity": "GY",
        "mineType": "Surface",
        "latitude": 45.01570086,
        "longitude": -64.09711715
      }
    },
    {
      "type": "Feature",
      "geometry": {
        "type": "Point",
        "coordinates": [
          -64.08676791,
          45.02948269
        ]
      },
      "properties": {
        "name": "Newport Plaster Mining & Manufacturing Company Upper Quarry",
        "jurisdiction": "NS",
        "status": "NULL",
        "commodity": "GY",
        "mineType": "Surface",
        "latitude": 45.02948269,
        "longitude": -64.08676791
      }
    },
    {
      "type": "Feature",
      "geometry": {
        "type": "Point",
        "coordinates": [
          -60.31990609,
          46.15624883
        ]
      },
      "properties": {
        "name": "Dominion Iron & Steel Company Balls Creek Quarry",
        "jurisdiction": "NS",
        "status": "NULL",
        "commodity": "LS",
        "mineType": "Surface",
        "latitude": 46.15624883,
        "longitude": -60.31990609
      }
    },
    {
      "type": "Feature",
      "geometry": {
        "type": "Point",
        "coordinates": [
          -60.77484363,
          45.69249028
        ]
      },
      "properties": {
        "name": "James M. Cameron Barra Head Quarry",
        "jurisdiction": "NS",
        "status": "NULL",
        "commodity": "LS",
        "mineType": "Surface",
        "latitude": 45.69249028,
        "longitude": -60.77484363
      }
    },
    {
      "type": "Feature",
      "geometry": {
        "type": "Point",
        "coordinates": [
          -63.35858471,
          45.42952936
        ]
      },
      "properties": {
        "name": "L.E. Shaw Ltd. (Nova Scotia Sand & Gravel) Belmont Pit",
        "jurisdiction": "NS",
        "status": "NULL",
        "commodity": "SI",
        "mineType": "Surface",
        "latitude": 45.42952936,
        "longitude": -63.35858471
      }
    },
    {
      "type": "Feature",
      "geometry": {
        "type": "Point",
        "coordinates": [
          -63.28287863,
          45.20632657
        ]
      },
      "properties": {
        "name": "Steel Company of Canada (Londonderry Iron & Mining Company) McDonald Quarry",
        "jurisdiction": "NS",
        "status": "NULL",
        "commodity": "LS",
        "mineType": "Surface",
        "latitude": 45.20632657,
        "longitude": -63.28287863
      }
    },
    {
      "type": "Feature",
      "geometry": {
        "type": "Point",
        "coordinates": [
          -62.06144934,
          45.61228942
        ]
      },
      "properties": {
        "name": "McCabe's (McVican & McDonald) Brierly Brook (McIntosh) Quarry",
        "jurisdiction": "NS",
        "status": "NULL",
        "commodity": "LS",
        "mineType": "Surface",
        "latitude": 45.61228942,
        "longitude": -62.06144934
      }
    },
    {
      "type": "Feature",
      "geometry": {
        "type": "Point",
        "coordinates": [
          -63.2569127,
          45.24830824
        ]
      },
      "properties": {
        "name": "Canada Cement Lafarge Ltd. Brookfield Quarry",
        "jurisdiction": "NS",
        "status": "NULL",
        "commodity": "GY",
        "mineType": "Surface",
        "latitude": 45.24830824,
        "longitude": -63.2569127
      }
    },
    {
      "type": "Feature",
      "geometry": {
        "type": "Point",
        "coordinates": [
          -59.98985019,
          46.08304283
        ]
      },
      "properties": {
        "name": "Cape Breton Development Corporation (H.W. Phillips & Sons) Broughton Surface Mine",
        "jurisdiction": "NS",
        "status": "NULL",
        "commodity": "CL",
        "mineType": "Surface",
        "latitude": 46.08304283,
        "longitude": -59.98985019
      }
    },
    {
      "type": "Feature",
      "geometry": {
        "type": "Point",
        "coordinates": [
          -60.96712607,
          46.62904725
        ]
      },
      "properties": {
        "name": "National Gypsum (Canada) Co. Ltd. Great Northern Mining & Railway Company Quarry",
        "jurisdiction": "NS",
        "status": "NULL",
        "commodity": "GY",
        "mineType": "Surface",
        "latitude": 46.62904725,
        "longitude": -60.96712607
      }
    },
    {
      "type": "Feature",
      "geometry": {
        "type": "Point",
        "coordinates": [
          -64.17748132,
          45.15435629
        ]
      },
      "properties": {
        "name": "Maritime Gypsum Company Cove Quarry at Cheverie",
        "jurisdiction": "NS",
        "status": "NULL",
        "commodity": "GY",
        "mineType": "Surface",
        "latitude": 45.15435629,
        "longitude": -64.17748132
      }
    },
    {
      "type": "Feature",
      "geometry": {
        "type": "Point",
        "coordinates": [
          -64.17780368,
          45.15703546
        ]
      },
      "properties": {
        "name": "Maritime Gypsum Company Upper Head Quarry at Cheverie",
        "jurisdiction": "NS",
        "status": "NULL",
        "commodity": "GY",
        "mineType": "Surface",
        "latitude": 45.15703546,
        "longitude": -64.17780368
      }
    },
    {
      "type": "Feature",
      "geometry": {
        "type": "Point",
        "coordinates": [
          -64.18947228,
          45.73326454
        ]
      },
      "properties": {
        "name": "Delta Coal Incorporated Chignecto Surface Mine",
        "jurisdiction": "NS",
        "status": "NULL",
        "commodity": "CL",
        "mineType": "Surface",
        "latitude": 45.73326454,
        "longitude": -64.18947228
      }
    },
    {
      "type": "Feature",
      "geometry": {
        "type": "Point",
        "coordinates": [
          -63.81758237,
          45.0873585
        ]
      },
      "properties": {
        "name": "Windsor Plaster Company Clarksville Quarry",
        "jurisdiction": "NS",
        "status": "NULL",
        "commodity": "GY",
        "mineType": "Surface",
        "latitude": 45.0873585,
        "longitude": -63.81758237
      }
    },
    {
      "type": "Feature",
      "geometry": {
        "type": "Point",
        "coordinates": [
          -65.56245055,
          44.62651978
        ]
      },
      "properties": {
        "name": "Annapolis Iron Mining Company Moose River (Potter) Mine",
        "jurisdiction": "NS",
        "status": "NULL",
        "commodity": "FE",
        "mineType": "Surface",
        "latitude": 44.62651978,
        "longitude": -65.56245055
      }
    },
    {
      "type": "Feature",
      "geometry": {
        "type": "Point",
        "coordinates": [
          -65.58173441,
          44.61620958
        ]
      },
      "properties": {
        "name": "Annapolis Iron Mining Company Milner Mine",
        "jurisdiction": "NS",
        "status": "NULL",
        "commodity": "FE",
        "mineType": "Surface",
        "latitude": 44.61620958,
        "longitude": -65.58173441
      }
    },
    {
      "type": "Feature",
      "geometry": {
        "type": "Point",
        "coordinates": [
          -65.60694488,
          44.61570854
        ]
      },
      "properties": {
        "name": "Annapolis Iron Mining Company Milbury Mine",
        "jurisdiction": "NS",
        "status": "NULL",
        "commodity": "FE",
        "mineType": "Surface",
        "latitude": 44.61570854,
        "longitude": -65.60694488
      }
    },
    {
      "type": "Feature",
      "geometry": {
        "type": "Point",
        "coordinates": [
          -62.5737925,
          45.56480928
        ]
      },
      "properties": {
        "name": "Thorburn Mining Ltd. North McKay Surface Mine",
        "jurisdiction": "NS",
        "status": "NULL",
        "commodity": "CL",
        "mineType": "Surface",
        "latitude": 45.56480928,
        "longitude": -62.5737925
      }
    },
    {
      "type": "Feature",
      "geometry": {
        "type": "Point",
        "coordinates": [
          -62.5771617,
          45.55981722
        ]
      },
      "properties": {
        "name": "Thorburn Mining Ltd. South McKay Surface Mine",
        "jurisdiction": "NS",
        "status": "NULL",
        "commodity": "CL",
        "mineType": "Surface",
        "latitude": 45.55981722,
        "longitude": -62.5771617
      }
    },
    {
      "type": "Feature",
      "geometry": {
        "type": "Point",
        "coordinates": [
          -63.43807329,
          45.48226928
        ]
      },
      "properties": {
        "name": "Berichan Resources Ltd. Cottam Settlement Surface Mine",
        "jurisdiction": "NS",
        "status": "NULL",
        "commodity": "CL",
        "mineType": "Surface",
        "latitude": 45.48226928,
        "longitude": -63.43807329
      }
    },
    {
      "type": "Feature",
      "geometry": {
        "type": "Point",
        "coordinates": [
          -60.48935926,
          46.89149877
        ]
      },
      "properties": {
        "name": "National Gypsum (Canada) Co. Ltd. Half Mile Quarry at Dingwall",
        "jurisdiction": "NS",
        "status": "NULL",
        "commodity": "GY",
        "mineType": "Surface",
        "latitude": 46.89149877,
        "longitude": -60.48935926
      }
    },
    {
      "type": "Feature",
      "geometry": {
        "type": "Point",
        "coordinates": [
          -62.12426827,
          45.75461496
        ]
      },
      "properties": {
        "name": "Nova Scotia Steel & Coal Company Arisaig Iron Prospect",
        "jurisdiction": "NS",
        "status": "NULL",
        "commodity": "FE",
        "mineType": "Surface",
        "latitude": 45.75461496,
        "longitude": -62.12426827
      }
    },
    {
      "type": "Feature",
      "geometry": {
        "type": "Point",
        "coordinates": [
          -62.11381313,
          45.7612219
        ]
      },
      "properties": {
        "name": "Arisaig Iron Company East Doctors Brook Prospect",
        "jurisdiction": "NS",
        "status": "NULL",
        "commodity": "FE",
        "mineType": "Surface",
        "latitude": 45.7612219,
        "longitude": -62.11381313
      }
    },
    {
      "type": "Feature",
      "geometry": {
        "type": "Point",
        "coordinates": [
          -63.4957334,
          45.49278999
        ]
      },
      "properties": {
        "name": "Steel Company of Canada East Mines Weatherbee Brook Ankerite Quarry",
        "jurisdiction": "NS",
        "status": "NULL",
        "commodity": "FE",
        "mineType": "Surface",
        "latitude": 45.49278999,
        "longitude": -63.4957334
      }
    },
    {
      "type": "Feature",
      "geometry": {
        "type": "Point",
        "coordinates": [
          -63.51171365,
          45.49087428
        ]
      },
      "properties": {
        "name": "Londonderry Iron and Mining Company Bonnell's Ankerite Quarry",
        "jurisdiction": "NS",
        "status": "NULL",
        "commodity": "FE",
        "mineType": "Surface",
        "latitude": 45.49087428,
        "longitude": -63.51171365
      }
    },
    {
      "type": "Feature",
      "geometry": {
        "type": "Point",
        "coordinates": [
          -65.68458516,
          44.10275285
        ]
      },
      "properties": {
        "name": "Rio Algom Ltd. (East Kemptville Tin Corporation) East Kemptville Mine",
        "jurisdiction": "NS",
        "status": "NULL",
        "commodity": "SN",
        "mineType": "Surface",
        "latitude": 44.10275285,
        "longitude": -65.68458516
      }
    },
    {
      "type": "Feature",
      "geometry": {
        "type": "Point",
        "coordinates": [
          -64.16333917,
          44.57456603
        ]
      },
      "properties": {
        "name": "Mersey Paper Company (E.D. Lordly) East River Point Quarry",
        "jurisdiction": "NS",
        "status": "NULL",
        "commodity": "LS",
        "mineType": "Surface",
        "latitude": 44.57456603,
        "longitude": -64.16333917
      }
    },
    {
      "type": "Feature",
      "geometry": {
        "type": "Point",
        "coordinates": [
          -62.90365947,
          45.25011382
        ]
      },
      "properties": {
        "name": "Eastville Limestone Quarry",
        "jurisdiction": "NS",
        "status": "NULL",
        "commodity": "LS",
        "mineType": "Surface",
        "latitude": 45.25011382,
        "longitude": -62.90365947
      }
    },
    {
      "type": "Feature",
      "geometry": {
        "type": "Point",
        "coordinates": [
          -63.18808276,
          44.96042195
        ]
      },
      "properties": {
        "name": "Elderbank Silica Mining & Exploration (Atlantic Silica Ltd.) Open Cut",
        "jurisdiction": "NS",
        "status": "NULL",
        "commodity": "SI",
        "mineType": "Surface",
        "latitude": 44.96042195,
        "longitude": -63.18808276
      }
    },
    {
      "type": "Feature",
      "geometry": {
        "type": "Point",
        "coordinates": [
          -62.5297138,
          45.13747608
        ]
      },
      "properties": {
        "name": "Novagold Resources Inc. 15-Mile Stream Pit",
        "jurisdiction": "NS",
        "status": "NULL",
        "commodity": "AU",
        "mineType": "Surface",
        "latitude": 45.13747608,
        "longitude": -62.5297138
      }
    },
    {
      "type": "Feature",
      "geometry": {
        "type": "Point",
        "coordinates": [
          -60.25878162,
          46.2623536
        ]
      },
      "properties": {
        "name": "J & W King 3061831 Nova Scotia Limited Greenhills Surface Mine",
        "jurisdiction": "NS",
        "status": "NULL",
        "commodity": "CL",
        "mineType": "Surface",
        "latitude": 46.2623536,
        "longitude": -60.25878162
      }
    },
    {
      "type": "Feature",
      "geometry": {
        "type": "Point",
        "coordinates": [
          -60.27075978,
          46.26678054
        ]
      },
      "properties": {
        "name": "Brogan Mining Company Ltd. Sullivan Creek Surface Mine",
        "jurisdiction": "NS",
        "status": "NULL",
        "commodity": "CL",
        "mineType": "Surface",
        "latitude": 46.26678054,
        "longitude": -60.27075978
      }
    },
    {
      "type": "Feature",
      "geometry": {
        "type": "Point",
        "coordinates": [
          -64.06064198,
          44.97305224
        ]
      },
      "properties": {
        "name": "Windsor Plaster Company Ltd. Mosher Quarry",
        "jurisdiction": "NS",
        "status": "NULL",
        "commodity": "GY",
        "mineType": "Surface",
        "latitude": 44.97305224,
        "longitude": -64.06064198
      }
    },
    {
      "type": "Feature",
      "geometry": {
        "type": "Point",
        "coordinates": [
          -64.04614296,
          44.96657854
        ]
      },
      "properties": {
        "name": "Windsor Plaster Company Ltd. Newport Quarry",
        "jurisdiction": "NS",
        "status": "NULL",
        "commodity": "GY",
        "mineType": "Surface",
        "latitude": 44.96657854,
        "longitude": -64.04614296
      }
    },
    {
      "type": "Feature",
      "geometry": {
        "type": "Point",
        "coordinates": [
          -64.06452264,
          44.98333237
        ]
      },
      "properties": {
        "name": "Windsor Plaster Company Ltd. Eagle Swamp Quarry",
        "jurisdiction": "NS",
        "status": "NULL",
        "commodity": "GY",
        "mineType": "Surface",
        "latitude": 44.98333237,
        "longitude": -64.06452264
      }
    },
    {
      "type": "Feature",
      "geometry": {
        "type": "Point",
        "coordinates": [
          -64.2039631,
          45.06823941
        ]
      },
      "properties": {
        "name": "Hantsport Silica Quarry",
        "jurisdiction": "NS",
        "status": "NULL",
        "commodity": "SI",
        "mineType": "Surface",
        "latitude": 45.06823941,
        "longitude": -64.2039631
      }
    },
    {
      "type": "Feature",
      "geometry": {
        "type": "Point",
        "coordinates": [
          -62.29399698,
          44.93574552
        ]
      },
      "properties": {
        "name": "Harrigan Mining Associates Dawmac Prospect",
        "jurisdiction": "NS",
        "status": "NULL",
        "commodity": "AU",
        "mineType": "Surface",
        "latitude": 44.93574552,
        "longitude": -62.29399698
      }
    },
    {
      "type": "Feature",
      "geometry": {
        "type": "Point",
        "coordinates": [
          -60.40169473,
          46.6391068
        ]
      },
      "properties": {
        "name": "Ingonish Gypsum Company Ltd. Ingonish Beach Quarry",
        "jurisdiction": "NS",
        "status": "NULL",
        "commodity": "GY",
        "mineType": "Surface",
        "latitude": 46.6391068,
        "longitude": -60.40169473
      }
    },
    {
      "type": "Feature",
      "geometry": {
        "type": "Point",
        "coordinates": [
          -60.81483102,
          45.98403278
        ]
      },
      "properties": {
        "name": "Iona Gypsum Products Company Ltd. Grass Cove Quarry",
        "jurisdiction": "NS",
        "status": "NULL",
        "commodity": "GY",
        "mineType": "Surface",
        "latitude": 45.98403278,
        "longitude": -60.81483102
      }
    },
    {
      "type": "Feature",
      "geometry": {
        "type": "Point",
        "coordinates": [
          -60.81325238,
          45.96838654
        ]
      },
      "properties": {
        "name": "Cape Breton Gypsum Company Plaster Cove Quarry",
        "jurisdiction": "NS",
        "status": "NULL",
        "commodity": "GY",
        "mineType": "Surface",
        "latitude": 45.96838654,
        "longitude": -60.81325238
      }
    },
    {
      "type": "Feature",
      "geometry": {
        "type": "Point",
        "coordinates": [
          -60.67695576,
          45.81682373
        ]
      },
      "properties": {
        "name": "Scotia Limestone Limited Irish Cove Quarry",
        "jurisdiction": "NS",
        "status": "NULL",
        "commodity": "LS",
        "mineType": "Surface",
        "latitude": 45.81682373,
        "longitude": -60.67695576
      }
    },
    {
      "type": "Feature",
      "geometry": {
        "type": "Point",
        "coordinates": [
          -61.18566567,
          45.96851785
        ]
      },
      "properties": {
        "name": "Skyerock Minerals Ltd. Skye Mountain Magnetite Prospect",
        "jurisdiction": "NS",
        "status": "NULL",
        "commodity": "FE",
        "mineType": "Surface",
        "latitude": 45.96851785,
        "longitude": -61.18566567
      }
    },
    {
      "type": "Feature",
      "geometry": {
        "type": "Point",
        "coordinates": [
          -64.16868198,
          45.13900876
        ]
      },
      "properties": {
        "name": "Connecticut Adamant Gypsum Co. Foul Meadows Quarry",
        "jurisdiction": "NS",
        "status": "NULL",
        "commodity": "GY",
        "mineType": "Surface",
        "latitude": 45.13900876,
        "longitude": -64.16868198
      }
    },
    {
      "type": "Feature",
      "geometry": {
        "type": "Point",
        "coordinates": [
          -64.18251901,
          45.14081068
        ]
      },
      "properties": {
        "name": "Connecticut Adamant Gypsum Co. Patterson's Quarry",
        "jurisdiction": "NS",
        "status": "NULL",
        "commodity": "GY",
        "mineType": "Surface",
        "latitude": 45.14081068,
        "longitude": -64.18251901
      }
    },
    {
      "type": "Feature",
      "geometry": {
        "type": "Point",
        "coordinates": [
          -64.37149269,
          45.41569182
        ]
      },
      "properties": {
        "name": "Kirkhill Limestone Company Ltd. Robie Kirkpatrick Quarry",
        "jurisdiction": "NS",
        "status": "NULL",
        "commodity": "LS",
        "mineType": "Surface",
        "latitude": 45.41569182,
        "longitude": -64.37149269
      }
    },
    {
      "type": "Feature",
      "geometry": {
        "type": "Point",
        "coordinates": [
          -60.62528049,
          45.79091848
        ]
      },
      "properties": {
        "name": "Novex Mining & Exploration Company Ltd. Pine Brook Quarry",
        "jurisdiction": "NS",
        "status": "NULL",
        "commodity": "BA",
        "mineType": "Surface",
        "latitude": 45.79091848,
        "longitude": -60.62528049
      }
    },
    {
      "type": "Feature",
      "geometry": {
        "type": "Point",
        "coordinates": [
          -60.39663742,
          46.14074238
        ]
      },
      "properties": {
        "name": "Dominion Steel & Coal Corporation Leitches Creek Quarry",
        "jurisdiction": "NS",
        "status": "NULL",
        "commodity": "SI",
        "mineType": "Surface",
        "latitude": 46.14074238,
        "longitude": -60.39663742
      }
    },
    {
      "type": "Feature",
      "geometry": {
        "type": "Point",
        "coordinates": [
          -61.03208895,
          45.58115374
        ]
      },
      "properties": {
        "name": "H.C. Higginson Clough Quarry",
        "jurisdiction": "NS",
        "status": "NULL",
        "commodity": "GY",
        "mineType": "Surface",
        "latitude": 45.58115374,
        "longitude": -61.03208895
      }
    },
    {
      "type": "Feature",
      "geometry": {
        "type": "Point",
        "coordinates": [
          -61.02369273,
          45.59211609
        ]
      },
      "properties": {
        "name": "Lennox Passage H. Latimer Quarry",
        "jurisdiction": "NS",
        "status": "NULL",
        "commodity": "LS",
        "mineType": "Surface",
        "latitude": 45.59211609,
        "longitude": -61.02369273
      }
    },
    {
      "type": "Feature",
      "geometry": {
        "type": "Point",
        "coordinates": [
          -62.85055279,
          45.54754952
        ]
      },
      "properties": {
        "name": "McKay & Munro Limerock Quarry",
        "jurisdiction": "NS",
        "status": "NULL",
        "commodity": "LS",
        "mineType": "Surface",
        "latitude": 45.54754952,
        "longitude": -62.85055279
      }
    },
    {
      "type": "Feature",
      "geometry": {
        "type": "Point",
        "coordinates": [
          -60.27848525,
          46.27587518
        ]
      },
      "properties": {
        "name": "Thomas Brogan & Sons Construction Ltd. Toronto Road Surface Mine",
        "jurisdiction": "NS",
        "status": "NULL",
        "commodity": "CL",
        "mineType": "Surface",
        "latitude": 46.27587518,
        "longitude": -60.27848525
      }
    },
    {
      "type": "Feature",
      "geometry": {
        "type": "Point",
        "coordinates": [
          -60.26610169,
          46.28345484
        ]
      },
      "properties": {
        "name": "Brogan Mining Company Ltd. Little Pond Surface Mine",
        "jurisdiction": "NS",
        "status": "NULL",
        "commodity": "CL",
        "mineType": "Surface",
        "latitude": 46.28345484,
        "longitude": -60.26610169
      }
    },
    {
      "type": "Feature",
      "geometry": {
        "type": "Point",
        "coordinates": [
          -60.2698396,
          46.28660433
        ]
      },
      "properties": {
        "name": "Old Sydney Collieries Ltd. Lloyd Cove Surface Mine",
        "jurisdiction": "NS",
        "status": "NULL",
        "commodity": "CL",
        "mineType": "Surface",
        "latitude": 46.28660433,
        "longitude": -60.2698396
      }
    },
    {
      "type": "Feature",
      "geometry": {
        "type": "Point",
        "coordinates": [
          -63.65077523,
          45.48107548
        ]
      },
      "properties": {
        "name": "Steel Company of Canada West Mines Open Cut",
        "jurisdiction": "NS",
        "status": "NULL",
        "commodity": "FE",
        "mineType": "Surface",
        "latitude": 45.48107548,
        "longitude": -63.65077523
      }
    },
    {
      "type": "Feature",
      "geometry": {
        "type": "Point",
        "coordinates": [
          -63.61773154,
          45.48404932
        ]
      },
      "properties": {
        "name": "Steel Company of Canada Old Mountain Ankerite Quarry",
        "jurisdiction": "NS",
        "status": "NULL",
        "commodity": "FE",
        "mineType": "Surface",
        "latitude": 45.48404932,
        "longitude": -63.61773154
      }
    },
    {
      "type": "Feature",
      "geometry": {
        "type": "Point",
        "coordinates": [
          -60.69902217,
          46.12580297
        ]
      },
      "properties": {
        "name": "\"Gypsum",
        "jurisdiction": "NS",
        "status": " Lime and Alabastine (Canada) Co. Herring Cove Quarry\"",
        "commodity": "NULL",
        "mineType": "260075",
        "latitude": 46.12580297,
        "longitude": -60.69902217
      }
    },
    {
      "type": "Feature",
      "geometry": {
        "type": "Point",
        "coordinates": [
          -63.67042281,
          45.47623623
        ]
      },
      "properties": {
        "name": "Steel Company of Canada Jamme Quarry",
        "jurisdiction": "NS",
        "status": "NULL",
        "commodity": "LS",
        "mineType": "Surface",
        "latitude": 45.47623623,
        "longitude": -63.67042281
      }
    },
    {
      "type": "Feature",
      "geometry": {
        "type": "Point",
        "coordinates": [
          -61.46337082,
          46.08775056
        ]
      },
      "properties": {
        "name": "\"Nova Scotia Coal and Gypsum (Gypsum",
        "jurisdiction": "NS",
        "status": " Lime and Alabastine Canada Ltd.) Company South Quarry\"",
        "commodity": "NULL",
        "mineType": "75127",
        "latitude": 46.08775056,
        "longitude": -61.46337082
      }
    },
    {
      "type": "Feature",
      "geometry": {
        "type": "Point",
        "coordinates": [
          -61.45964977,
          46.08945553
        ]
      },
      "properties": {
        "name": "\"Nova Scotia Coal and Gypsum (Gypsum",
        "jurisdiction": "NS",
        "status": " Lime and Alabastine Canada Ltd.) Company North Quarry\"",
        "commodity": "NULL",
        "mineType": "NULL",
        "latitude": 46.08945553,
        "longitude": -61.45964977
      }
    },
    {
      "type": "Feature",
      "geometry": {
        "type": "Point",
        "coordinates": [
          -60.73959062,
          46.50854345
        ]
      },
      "properties": {
        "name": "Lodestone Limited (Scominex) MacMillan Flowage Gold Prospect",
        "jurisdiction": "NS",
        "status": "NULL",
        "commodity": "AU",
        "mineType": "Surface",
        "latitude": 46.50854345,
        "longitude": -60.73959062
      }
    },
    {
      "type": "Feature",
      "geometry": {
        "type": "Point",
        "coordinates": [
          -63.1692159,
          45.41574488
        ]
      },
      "properties": {
        "name": "Lafarge Canada Inc. Manganese Mines Limestone Quarry",
        "jurisdiction": "NS",
        "status": "NULL",
        "commodity": "LS",
        "mineType": "Surface",
        "latitude": 45.41574488,
        "longitude": -63.1692159
      }
    },
    {
      "type": "Feature",
      "geometry": {
        "type": "Point",
        "coordinates": [
          -63.17346299,
          45.42536986
        ]
      },
      "properties": {
        "name": "James Thompson Clifford Brook Quarry",
        "jurisdiction": "NS",
        "status": "NULL",
        "commodity": "LS",
        "mineType": "Surface",
        "latitude": 45.42536986,
        "longitude": -63.17346299
      }
    },
    {
      "type": "Feature",
      "geometry": {
        "type": "Point",
        "coordinates": [
          -61.04027069,
          45.82435574
        ]
      },
      "properties": {
        "name": "Dominion Iron & Steel Company (Marble Mountain Quarries Ltd.) Grand Quarry",
        "jurisdiction": "NS",
        "status": "NULL",
        "commodity": "LS",
        "mineType": "Surface",
        "latitude": 45.82435574,
        "longitude": -61.04027069
      }
    },
    {
      "type": "Feature",
      "geometry": {
        "type": "Point",
        "coordinates": [
          -63.17609199,
          45.00307433
        ]
      },
      "properties": {
        "name": "Murchy Quarry",
        "jurisdiction": "NS",
        "status": "NULL",
        "commodity": "LS",
        "mineType": "Surface",
        "latitude": 45.00307433,
        "longitude": -63.17609199
      }
    },
    {
      "type": "Feature",
      "geometry": {
        "type": "Point",
        "coordinates": [
          -63.80237534,
          44.92855559
        ]
      },
      "properties": {
        "name": "P.C.F. Gold Mining Company (Great Belt Mining Company) Mine",
        "jurisdiction": "NS",
        "status": "NULL",
        "commodity": "AU",
        "mineType": "Surface",
        "latitude": 44.92855559,
        "longitude": -63.80237534
      }
    },
    {
      "type": "Feature",
      "geometry": {
        "type": "Point",
        "coordinates": [
          -61.3895111,
          45.59511552
        ]
      },
      "properties": {
        "name": "McNeil's Quarry at Pirate Harbour",
        "jurisdiction": "NS",
        "status": "NULL",
        "commodity": "GY",
        "mineType": "Surface",
        "latitude": 45.59511552,
        "longitude": -61.3895111
      }
    },
    {
      "type": "Feature",
      "geometry": {
        "type": "Point",
        "coordinates": [
          -64.24152012,
          45.78514028
        ]
      },
      "properties": {
        "name": "Domtar Construction Materials Ltd. Nappan Quarry",
        "jurisdiction": "NS",
        "status": "NULL",
        "commodity": "GY",
        "mineType": "Surface",
        "latitude": 45.78514028,
        "longitude": -64.24152012
      }
    },
    {
      "type": "Feature",
      "geometry": {
        "type": "Point",
        "coordinates": [
          -63.76897858,
          45.2605009
        ]
      },
      "properties": {
        "name": "Noel Plaster Company O'Brien Quarry",
        "jurisdiction": "NS",
        "status": "NULL",
        "commodity": "GY",
        "mineType": "Surface",
        "latitude": 45.2605009,
        "longitude": -63.76897858
      }
    },
    {
      "type": "Feature",
      "geometry": {
        "type": "Point",
        "coordinates": [
          -63.72949032,
          45.01999128
        ]
      },
      "properties": {
        "name": "Glooscap Minerals Wallace Lake Pit",
        "jurisdiction": "NS",
        "status": "NULL",
        "commodity": "SI",
        "mineType": "Surface",
        "latitude": 45.01999128,
        "longitude": -63.72949032
      }
    },
    {
      "type": "Feature",
      "geometry": {
        "type": "Point",
        "coordinates": [
          -60.94633868,
          45.94016462
        ]
      },
      "properties": {
        "name": "Newark Plaster Company Ottawa Brook Quarry",
        "jurisdiction": "NS",
        "status": "NULL",
        "commodity": "GY",
        "mineType": "Surface",
        "latitude": 45.94016462,
        "longitude": -60.94633868
      }
    },
    {
      "type": "Feature",
      "geometry": {
        "type": "Point",
        "coordinates": [
          -66.16706965,
          43.86132178
        ]
      },
      "properties": {
        "name": "Dominion Steel & Coal Corporation Chegoggin Point Silica Quarry",
        "jurisdiction": "NS",
        "status": "NULL",
        "commodity": "SI",
        "mineType": "Surface",
        "latitude": 43.86132178,
        "longitude": -66.16706965
      }
    },
    {
      "type": "Feature",
      "geometry": {
        "type": "Point",
        "coordinates": [
          -60.67055438,
          46.11452455
        ]
      },
      "properties": {
        "name": "\"Gypsum",
        "jurisdiction": "NS",
        "status": " Lime and Alabastine (Canada) Co. Plaister Mines Quarry\"",
        "commodity": "NULL",
        "mineType": "NULL",
        "latitude": 46.11452455,
        "longitude": -60.67055438
      }
    },
    {
      "type": "Feature",
      "geometry": {
        "type": "Point",
        "coordinates": [
          -60.29921419,
          46.32522077
        ]
      },
      "properties": {
        "name": "Thomas Brogan & Sons Construction Ltd. Point Aconi Surface Mine",
        "jurisdiction": "NS",
        "status": "NULL",
        "commodity": "CL",
        "mineType": "Surface",
        "latitude": 46.32522077,
        "longitude": -60.29921419
      }
    },
    {
      "type": "Feature",
      "geometry": {
        "type": "Point",
        "coordinates": [
          -60.31007989,
          46.31982491
        ]
      },
      "properties": {
        "name": "Pioneer Coal Limited Point Aconi Surface Mine",
        "jurisdiction": "NS",
        "status": "NULL",
        "commodity": "CL",
        "mineType": "Surface",
        "latitude": 46.31982491,
        "longitude": -60.31007989
      }
    },
    {
      "type": "Feature",
      "geometry": {
        "type": "Point",
        "coordinates": [
          -60.31279888,
          46.30674846
        ]
      },
      "properties": {
        "name": "Nova Construction Company Ltd. Novaco Point Aconi Surface Mine",
        "jurisdiction": "NS",
        "status": "NULL",
        "commodity": "CL",
        "mineType": "Surface",
        "latitude": 46.30674846,
        "longitude": -60.31279888
      }
    },
    {
      "type": "Feature",
      "geometry": {
        "type": "Point",
        "coordinates": [
          -60.25871315,
          46.16217712
        ]
      },
      "properties": {
        "name": "Nova Scotia Steel & Coal Company (BESCO) Point Edward Quarry",
        "jurisdiction": "NS",
        "status": "NULL",
        "commodity": "LS",
        "mineType": "Surface",
        "latitude": 46.16217712,
        "longitude": -60.25871315
      }
    },
    {
      "type": "Feature",
      "geometry": {
        "type": "Point",
        "coordinates": [
          -63.68922508,
          45.8315251
        ]
      },
      "properties": {
        "name": "Nova Scotia Department of Highways & Agriculture Dewar's Hill Quarry",
        "jurisdiction": "NS",
        "status": "NULL",
        "commodity": "LS",
        "mineType": "Surface",
        "latitude": 45.8315251,
        "longitude": -63.68922508
      }
    },
    {
      "type": "Feature",
      "geometry": {
        "type": "Point",
        "coordinates": [
          -60.01567248,
          46.17012645
        ]
      },
      "properties": {
        "name": "Pioneer Coal Limited Airport Swamp Surface Mine",
        "jurisdiction": "NS",
        "status": "NULL",
        "commodity": "CL",
        "mineType": "Surface",
        "latitude": 46.17012645,
        "longitude": -60.01567248
      }
    },
    {
      "type": "Feature",
      "geometry": {
        "type": "Point",
        "coordinates": [
          -61.21736243,
          45.80792319
        ]
      },
      "properties": {
        "name": "Georgia Pacific Corporation River Denys Quarry",
        "jurisdiction": "NS",
        "status": "NULL",
        "commodity": "GY",
        "mineType": "Surface",
        "latitude": 45.80792319,
        "longitude": -61.21736243
      }
    },
    {
      "type": "Feature",
      "geometry": {
        "type": "Point",
        "coordinates": [
          -61.13746262,
          46.17854056
        ]
      },
      "properties": {
        "name": "Lynx Minerals Inc. Scotsville Quarry",
        "jurisdiction": "NS",
        "status": "NULL",
        "commodity": "BA",
        "mineType": "Surface",
        "latitude": 46.17854056,
        "longitude": -61.13746262
      }
    },
    {
      "type": "Feature",
      "geometry": {
        "type": "Point",
        "coordinates": [
          -63.46588626,
          45.26703627
        ]
      },
      "properties": {
        "name": "South Maitland Quarry",
        "jurisdiction": "NS",
        "status": "NULL",
        "commodity": "GY",
        "mineType": "Surface",
        "latitude": 45.26703627,
        "longitude": -63.46588626
      }
    },
    {
      "type": "Feature",
      "geometry": {
        "type": "Point",
        "coordinates": [
          -63.4772698,
          45.23815736
        ]
      },
      "properties": {
        "name": "Burgess & Dow Quarries at South Maitland",
        "jurisdiction": "NS",
        "status": "NULL",
        "commodity": "GY",
        "mineType": "Surface",
        "latitude": 45.23815736,
        "longitude": -63.4772698
      }
    },
    {
      "type": "Feature",
      "geometry": {
        "type": "Point",
        "coordinates": [
          -64.07330531,
          45.62840261
        ]
      },
      "properties": {
        "name": "Novaco Ltd. Rodney Surface Mine",
        "jurisdiction": "NS",
        "status": "NULL",
        "commodity": "CL",
        "mineType": "Surface",
        "latitude": 45.62840261,
        "longitude": -64.07330531
      }
    },
    {
      "type": "Feature",
      "geometry": {
        "type": "Point",
        "coordinates": [
          -62.61759044,
          45.45542063
        ]
      },
      "properties": {
        "name": "Nova Scotia Steel & Coal Company Springville Quarry",
        "jurisdiction": "NS",
        "status": "NULL",
        "commodity": "LS",
        "mineType": "Surface",
        "latitude": 45.45542063,
        "longitude": -62.61759044
      }
    },
    {
      "type": "Feature",
      "geometry": {
        "type": "Point",
        "coordinates": [
          -60.64843154,
          46.25922904
        ]
      },
      "properties": {
        "name": "Victoria Gypsum Mining & Manufacturing Company Goose Cove Quarry",
        "jurisdiction": "NS",
        "status": "NULL",
        "commodity": "GY",
        "mineType": "Surface",
        "latitude": 46.25922904,
        "longitude": -60.64843154
      }
    },
    {
      "type": "Feature",
      "geometry": {
        "type": "Point",
        "coordinates": [
          -61.1807755,
          46.34015154
        ]
      },
      "properties": {
        "name": "Evans Coal Mines Ltd. St. Rose Surface Mine",
        "jurisdiction": "NS",
        "status": "NULL",
        "commodity": "CL",
        "mineType": "Surface",
        "latitude": 46.34015154,
        "longitude": -61.1807755
      }
    },
    {
      "type": "Feature",
      "geometry": {
        "type": "Point",
        "coordinates": [
          -64.18125899,
          45.0988756
        ]
      },
      "properties": {
        "name": "Grant's Quarry",
        "jurisdiction": "NS",
        "status": "NULL",
        "commodity": "GY",
        "mineType": "Surface",
        "latitude": 45.0988756,
        "longitude": -64.18125899
      }
    },
    {
      "type": "Feature",
      "geometry": {
        "type": "Point",
        "coordinates": [
          -62.53663151,
          45.40862946
        ]
      },
      "properties": {
        "name": "Nova Scotia Department of Agriculture Sunnybrae Quarry",
        "jurisdiction": "NS",
        "status": "NULL",
        "commodity": "LS",
        "mineType": "Surface",
        "latitude": 45.40862946,
        "longitude": -62.53663151
      }
    },
    {
      "type": "Feature",
      "geometry": {
        "type": "Point",
        "coordinates": [
          -60.25439822,
          46.23839731
        ]
      },
      "properties": {
        "name": "Cape Crushing Company Ltd. Halfway Road Surface Mine",
        "jurisdiction": "NS",
        "status": "NULL",
        "commodity": "CL",
        "mineType": "Surface",
        "latitude": 46.23839731,
        "longitude": -60.25439822
      }
    },
    {
      "type": "Feature",
      "geometry": {
        "type": "Point",
        "coordinates": [
          -62.6813024,
          44.81257863
        ]
      },
      "properties": {
        "name": "Tangier Limited Partnership Strawberry Hill Open Cut",
        "jurisdiction": "NS",
        "status": "NULL",
        "commodity": "AU",
        "mineType": "Surface",
        "latitude": 44.81257863,
        "longitude": -62.6813024
      }
    },
    {
      "type": "Feature",
      "geometry": {
        "type": "Point",
        "coordinates": [
          -64.25668774,
          44.32054543
        ]
      },
      "properties": {
        "name": "Cunard's Cove John Campbell Placer Mine",
        "jurisdiction": "NS",
        "status": "NULL",
        "commodity": "AU",
        "mineType": "Surface",
        "latitude": 44.32054543,
        "longitude": -64.25668774
      }
    },
    {
      "type": "Feature",
      "geometry": {
        "type": "Point",
        "coordinates": [
          -62.55218076,
          45.55919096
        ]
      },
      "properties": {
        "name": "Thorburn Mining Ltd. McBean Surface Mine",
        "jurisdiction": "NS",
        "status": "NULL",
        "commodity": "CL",
        "mineType": "Surface",
        "latitude": 45.55919096,
        "longitude": -62.55218076
      }
    },
    {
      "type": "Feature",
      "geometry": {
        "type": "Point",
        "coordinates": [
          -64.13162837,
          44.96108236
        ]
      },
      "properties": {
        "name": "Windsor Plaster Company Ltd. Martock Quarry",
        "jurisdiction": "NS",
        "status": "NULL",
        "commodity": "GY",
        "mineType": "Surface",
        "latitude": 44.96108236,
        "longitude": -64.13162837
      }
    },
    {
      "type": "Feature",
      "geometry": {
        "type": "Point",
        "coordinates": [
          -64.12111163,
          44.97446401
        ]
      },
      "properties": {
        "name": "Windsor Plaster Company Ltd. Redden & Wilkins Quarries",
        "jurisdiction": "NS",
        "status": "NULL",
        "commodity": "GY",
        "mineType": "Surface",
        "latitude": 44.97446401,
        "longitude": -64.12111163
      }
    },
    {
      "type": "Feature",
      "geometry": {
        "type": "Point",
        "coordinates": [
          -64.09059877,
          44.97048356
        ]
      },
      "properties": {
        "name": "Windsor Plaster Company Ltd. Meadow & Parsons Quarries",
        "jurisdiction": "NS",
        "status": "NULL",
        "commodity": "GY",
        "mineType": "Surface",
        "latitude": 44.97048356,
        "longitude": -64.09059877
      }
    },
    {
      "type": "Feature",
      "geometry": {
        "type": "Point",
        "coordinates": [
          -63.77265874,
          45.46192659
        ]
      },
      "properties": {
        "name": "Atlantic Barite Company Bass River Prospect",
        "jurisdiction": "NS",
        "status": "NULL",
        "commodity": "BA",
        "mineType": "Surface",
        "latitude": 45.46192659,
        "longitude": -63.77265874
      }
    },
    {
      "type": "Feature",
      "geometry": {
        "type": "Point",
        "coordinates": [
          -63.78004458,
          45.46509882
        ]
      },
      "properties": {
        "name": "Lodestone Limited Bass River Magnetite Pit",
        "jurisdiction": "NS",
        "status": "NULL",
        "commodity": "FE",
        "mineType": "Surface",
        "latitude": 45.46509882,
        "longitude": -63.78004458
      }
    },
    {
      "type": "Feature",
      "geometry": {
        "type": "Point",
        "coordinates": [
          -63.23989398,
          45.27092105
        ]
      },
      "properties": {
        "name": "E-Z-EM Canada Inc. (Nystone) Brookfield Pit",
        "jurisdiction": "NS",
        "status": "NULL",
        "commodity": "BA",
        "mineType": "Surface",
        "latitude": 45.27092105,
        "longitude": -63.23989398
      }
    },
    {
      "type": "Feature",
      "geometry": {
        "type": "Point",
        "coordinates": [
          -64.04117293,
          45.20652172
        ]
      },
      "properties": {
        "name": "Dresser Minerals Barite Open Pit",
        "jurisdiction": "NS",
        "status": "NULL",
        "commodity": "BA",
        "mineType": "Surface",
        "latitude": 45.20652172,
        "longitude": -64.04117293
      }
    },
    {
      "type": "Feature",
      "geometry": {
        "type": "Point",
        "coordinates": [
          -63.93240325,
          45.22845329
        ]
      },
      "properties": {
        "name": "National Gypsum Canada Co. Ltd. Fry's Mountain Quarry",
        "jurisdiction": "NS",
        "status": "NULL",
        "commodity": "GY",
        "mineType": "Surface",
        "latitude": 45.22845329,
        "longitude": -63.93240325
      }
    },
    {
      "type": "Feature",
      "geometry": {
        "type": "Point",
        "coordinates": [
          -63.98657848,
          45.22759305
        ]
      },
      "properties": {
        "name": "National Gypsum Canada Co. Ltd. South Mountain Quarry",
        "jurisdiction": "NS",
        "status": "NULL",
        "commodity": "GY",
        "mineType": "Surface",
        "latitude": 45.22759305,
        "longitude": -63.98657848
      }
    },
    {
      "type": "Feature",
      "geometry": {
        "type": "Point",
        "coordinates": [
          -63.98100231,
          45.22852324
        ]
      },
      "properties": {
        "name": "National Gypsum Canada Co. Ltd. North Mountain Quarry",
        "jurisdiction": "NS",
        "status": "NULL",
        "commodity": "GY",
        "mineType": "Surface",
        "latitude": 45.22852324,
        "longitude": -63.98100231
      }
    },
    {
      "type": "Feature",
      "geometry": {
        "type": "Point",
        "coordinates": [
          -63.90768382,
          45.22404362
        ]
      },
      "properties": {
        "name": "National Gypsum Canada Co. Ltd. Stevens Quarry",
        "jurisdiction": "NS",
        "status": "NULL",
        "commodity": "GY",
        "mineType": "Surface",
        "latitude": 45.22404362,
        "longitude": -63.90768382
      }
    },
    {
      "type": "Feature",
      "geometry": {
        "type": "Point",
        "coordinates": [
          -62.71041517,
          45.55574122
        ]
      },
      "properties": {
        "name": "Pioneer Coal Limited Westville Surface Mine",
        "jurisdiction": "NS",
        "status": "NULL",
        "commodity": "CL",
        "mineType": "Surface",
        "latitude": 45.55574122,
        "longitude": -62.71041517
      }
    },
    {
      "type": "Feature",
      "geometry": {
        "type": "Point",
        "coordinates": [
          -64.14083368,
          44.98986906
        ]
      },
      "properties": {
        "name": "Pellow Quarry",
        "jurisdiction": "NS",
        "status": "NULL",
        "commodity": "GY",
        "mineType": "Surface",
        "latitude": 44.98986906,
        "longitude": -64.14083368
      }
    },
    {
      "type": "Feature",
      "geometry": {
        "type": "Point",
        "coordinates": [
          -64.1439104,
          44.98765981
        ]
      },
      "properties": {
        "name": "Eastern Lime Company Limited Windsor Quarry",
        "jurisdiction": "NS",
        "status": "NULL",
        "commodity": "LS",
        "mineType": "Surface",
        "latitude": 44.98765981,
        "longitude": -64.1439104
      }
    },
    {
      "type": "Feature",
      "geometry": {
        "type": "Point",
        "coordinates": [
          -64.15839818,
          44.9807983
        ]
      },
      "properties": {
        "name": "H. & MacD Lime Co. Maxner's Point Quarry",
        "jurisdiction": "NS",
        "status": "NULL",
        "commodity": "LS",
        "mineType": "Surface",
        "latitude": 44.9807983,
        "longitude": -64.15839818
      }
    },
    {
      "type": "Feature",
      "geometry": {
        "type": "Point",
        "coordinates": [
          -63.20341663,
          45.67848411
        ]
      },
      "properties": {
        "name": "Sterling Mining Company Black River Copper Mine",
        "jurisdiction": "NS",
        "status": "NULL",
        "commodity": "CU",
        "mineType": "Underground",
        "latitude": 45.67848411,
        "longitude": -63.20341663
      }
    },
    {
      "type": "Feature",
      "geometry": {
        "type": "Point",
        "coordinates": [
          -62.71729454,
          45.06579227
        ]
      },
      "properties": {
        "name": "Beaver Dam Gold Mining Company (Gladwin Gold Mining Co.) J.H. Austin Mine",
        "jurisdiction": "NS",
        "status": "NULL",
        "commodity": "AU",
        "mineType": "Underground",
        "latitude": 45.06579227,
        "longitude": -62.71729454
      }
    },
    {
      "type": "Feature",
      "geometry": {
        "type": "Point",
        "coordinates": [
          -62.71855246,
          45.06571436
        ]
      },
      "properties": {
        "name": "Seabright Resources Inc. Beaver Dam Mine",
        "jurisdiction": "NS",
        "status": "NULL",
        "commodity": "AU",
        "mineType": "Underground",
        "latitude": 45.06571436,
        "longitude": -62.71855246
      }
    },
    {
      "type": "Feature",
      "geometry": {
        "type": "Point",
        "coordinates": [
          -59.96503052,
          46.12141275
        ]
      },
      "properties": {
        "name": "Dominion Coal Company Ltd. #21 Colliery",
        "jurisdiction": "NS",
        "status": "NULL",
        "commodity": "CL",
        "mineType": "Underground",
        "latitude": 46.12141275,
        "longitude": -59.96503052
      }
    },
    {
      "type": "Feature",
      "geometry": {
        "type": "Point",
        "coordinates": [
          -59.96433234,
          46.12657856
        ]
      },
      "properties": {
        "name": "Dominion Coal Company Ltd. #21 North Side Main Deep",
        "jurisdiction": "NS",
        "status": "NULL",
        "commodity": "CL",
        "mineType": "Underground",
        "latitude": 46.12657856,
        "longitude": -59.96433234
      }
    },
    {
      "type": "Feature",
      "geometry": {
        "type": "Point",
        "coordinates": [
          -59.93608723,
          46.12120694
        ]
      },
      "properties": {
        "name": "Dominion Coal Company Ltd. #22 Colliery",
        "jurisdiction": "NS",
        "status": "NULL",
        "commodity": "CL",
        "mineType": "Underground",
        "latitude": 46.12120694,
        "longitude": -59.93608723
      }
    },
    {
      "type": "Feature",
      "geometry": {
        "type": "Point",
        "coordinates": [
          -64.4220747,
          44.43682224
        ]
      },
      "properties": {
        "name": "Nugold Mining Corporation Ltd. Blockhouse Mine",
        "jurisdiction": "NS",
        "status": "NULL",
        "commodity": "AU",
        "mineType": "Underground",
        "latitude": 44.43682224,
        "longitude": -64.4220747
      }
    },
    {
      "type": "Feature",
      "geometry": {
        "type": "Point",
        "coordinates": [
          -60.27959156,
          46.25457967
        ]
      },
      "properties": {
        "name": "Atlantic Coal Company Colliery",
        "jurisdiction": "NS",
        "status": "NULL",
        "commodity": "CL",
        "mineType": "Underground",
        "latitude": 46.25457967,
        "longitude": -60.27959156
      }
    },
    {
      "type": "Feature",
      "geometry": {
        "type": "Point",
        "coordinates": [
          -60.29396256,
          46.2607442
        ]
      },
      "properties": {
        "name": "Bras d'Or Coal Company Ltd. Colonial #1 (Toronto) Colliery",
        "jurisdiction": "NS",
        "status": "NULL",
        "commodity": "CL",
        "mineType": "Underground",
        "latitude": 46.2607442,
        "longitude": -60.29396256
      }
    },
    {
      "type": "Feature",
      "geometry": {
        "type": "Point",
        "coordinates": [
          -60.28801354,
          46.26086415
        ]
      },
      "properties": {
        "name": "Bras d'Or Coal Company Ltd. Colonial #4 Colliery",
        "jurisdiction": "NS",
        "status": "NULL",
        "commodity": "CL",
        "mineType": "Underground",
        "latitude": 46.26086415,
        "longitude": -60.28801354
      }
    },
    {
      "type": "Feature",
      "geometry": {
        "type": "Point",
        "coordinates": [
          -60.28114362,
          46.25835177
        ]
      },
      "properties": {
        "name": "Bras d'Or Coal Company Ltd. Colonial #5 Prospect",
        "jurisdiction": "NS",
        "status": "NULL",
        "commodity": "CL",
        "mineType": "Underground",
        "latitude": 46.25835177,
        "longitude": -60.28114362
      }
    },
    {
      "type": "Feature",
      "geometry": {
        "type": "Point",
        "coordinates": [
          -62.59243314,
          45.43412675
        ]
      },
      "properties": {
        "name": "Bridgeville Mining Company (Pictou Charcoal & Iron Company) Big Grant Upper Level Mine",
        "jurisdiction": "NS",
        "status": "NULL",
        "commodity": "FE",
        "mineType": "Underground",
        "latitude": 45.43412675,
        "longitude": -62.59243314
      }
    },
    {
      "type": "Feature",
      "geometry": {
        "type": "Point",
        "coordinates": [
          -62.59683604,
          45.43523152
        ]
      },
      "properties": {
        "name": "Bridgeville Mining Company (Pictou Charcoal & Iron Company) Middle Grant Brook Mine",
        "jurisdiction": "NS",
        "status": "NULL",
        "commodity": "FE",
        "mineType": "Underground",
        "latitude": 45.43523152,
        "longitude": -62.59683604
      }
    },
    {
      "type": "Feature",
      "geometry": {
        "type": "Point",
        "coordinates": [
          -62.60158374,
          45.43460009
        ]
      },
      "properties": {
        "name": "Bridgeville Mining Company (Pictou Charcoal & Iron Company) Scotia Grant Upper Mine",
        "jurisdiction": "NS",
        "status": "NULL",
        "commodity": "FE",
        "mineType": "Underground",
        "latitude": 45.43460009,
        "longitude": -62.60158374
      }
    },
    {
      "type": "Feature",
      "geometry": {
        "type": "Point",
        "coordinates": [
          -62.60970967,
          45.4372205
        ]
      },
      "properties": {
        "name": "\"New Glasgow Iron",
        "jurisdiction": "NS",
        "status": " Coal & Railway Company Black Diamond Mine\"",
        "commodity": "NULL",
        "mineType": "NULL",
        "latitude": 45.4372205,
        "longitude": -62.60970967
      }
    },
    {
      "type": "Feature",
      "geometry": {
        "type": "Point",
        "coordinates": [
          -62.61080598,
          45.43769231
        ]
      },
      "properties": {
        "name": "Nova Scotia Steel & Coal Company Cameron (Black Diamond Company Tanner) Mine",
        "jurisdiction": "NS",
        "status": "NULL",
        "commodity": "FE",
        "mineType": "Underground",
        "latitude": 45.43769231,
        "longitude": -62.61080598
      }
    },
    {
      "type": "Feature",
      "geometry": {
        "type": "Point",
        "coordinates": [
          -62.60578636,
          45.43511874
        ]
      },
      "properties": {
        "name": "Nova Scotia Steel & Coal Company McDonald Mine",
        "jurisdiction": "NS",
        "status": "NULL",
        "commodity": "FE",
        "mineType": "Underground",
        "latitude": 45.43511874,
        "longitude": -62.60578636
      }
    },
    {
      "type": "Feature",
      "geometry": {
        "type": "Point",
        "coordinates": [
          -62.5881528,
          45.43025886
        ]
      },
      "properties": {
        "name": "Nova Scotia Steel & Coal Company Saddler (Monck) Mine",
        "jurisdiction": "NS",
        "status": "NULL",
        "commodity": "FE",
        "mineType": "Underground",
        "latitude": 45.43025886,
        "longitude": -62.5881528
      }
    },
    {
      "type": "Feature",
      "geometry": {
        "type": "Point",
        "coordinates": [
          -62.61138551,
          45.44080871
        ]
      },
      "properties": {
        "name": "Nova Scotia Steel & Coal Company Fraser Mine",
        "jurisdiction": "NS",
        "status": "NULL",
        "commodity": "FE",
        "mineType": "Underground",
        "latitude": 45.44080871,
        "longitude": -62.61138551
      }
    },
    {
      "type": "Feature",
      "geometry": {
        "type": "Point",
        "coordinates": [
          -64.62204142,
          44.32280999
        ]
      },
      "properties": {
        "name": "Blackhawk Mining Company Pelton Mine",
        "jurisdiction": "NS",
        "status": "NULL",
        "commodity": "AU",
        "mineType": "Underground",
        "latitude": 44.32280999,
        "longitude": -64.62204142
      }
    },
    {
      "type": "Feature",
      "geometry": {
        "type": "Point",
        "coordinates": [
          -64.60571098,
          44.31813418
        ]
      },
      "properties": {
        "name": "Home Gold & Copper Company Gilmour Mine",
        "jurisdiction": "NS",
        "status": "NULL",
        "commodity": "AU",
        "mineType": "Underground",
        "latitude": 44.31813418,
        "longitude": -64.60571098
      }
    },
    {
      "type": "Feature",
      "geometry": {
        "type": "Point",
        "coordinates": [
          -64.59078383,
          44.32770612
        ]
      },
      "properties": {
        "name": "Micmac Mining Company Millipsigate Lake Mine",
        "jurisdiction": "NS",
        "status": "NULL",
        "commodity": "AU",
        "mineType": "Underground",
        "latitude": 44.32770612,
        "longitude": -64.59078383
      }
    },
    {
      "type": "Feature",
      "geometry": {
        "type": "Point",
        "coordinates": [
          -64.60369445,
          44.31960299
        ]
      },
      "properties": {
        "name": "Scotia Mining & Development Company (Duluth Gold Mining Company) German Mine",
        "jurisdiction": "NS",
        "status": "NULL",
        "commodity": "AU",
        "mineType": "Underground",
        "latitude": 44.31960299,
        "longitude": -64.60369445
      }
    },
    {
      "type": "Feature",
      "geometry": {
        "type": "Point",
        "coordinates": [
          -64.60620377,
          44.31873045
        ]
      },
      "properties": {
        "name": "Queens Mines Ltd. Millipsigate Lake Mine",
        "jurisdiction": "NS",
        "status": "NULL",
        "commodity": "AU",
        "mineType": "Underground",
        "latitude": 44.31873045,
        "longitude": -64.60620377
      }
    },
    {
      "type": "Feature",
      "geometry": {
        "type": "Point",
        "coordinates": [
          -64.58960488,
          44.33002728
        ]
      },
      "properties": {
        "name": "Leipsigate Mining Company (Owen Gold Mining Company) Jackpot Mine",
        "jurisdiction": "NS",
        "status": "NULL",
        "commodity": "AU",
        "mineType": "Underground",
        "latitude": 44.33002728,
        "longitude": -64.58960488
      }
    },
    {
      "type": "Feature",
      "geometry": {
        "type": "Point",
        "coordinates": [
          -59.9766449,
          46.08302701
        ]
      },
      "properties": {
        "name": "Bras d'Or Coal Company Ltd. Four Star Colliery",
        "jurisdiction": "NS",
        "status": "NULL",
        "commodity": "CL",
        "mineType": "Underground",
        "latitude": 46.08302701,
        "longitude": -59.9766449
      }
    },
    {
      "type": "Feature",
      "geometry": {
        "type": "Point",
        "coordinates": [
          -59.98790771,
          46.0828476
        ]
      },
      "properties": {
        "name": "Samuel Poliskin & Company Tracy Seam Mine",
        "jurisdiction": "NS",
        "status": "NULL",
        "commodity": "CL",
        "mineType": "Underground",
        "latitude": 46.0828476,
        "longitude": -59.98790771
      }
    },
    {
      "type": "Feature",
      "geometry": {
        "type": "Point",
        "coordinates": [
          -62.45087375,
          45.2472501
        ]
      },
      "properties": {
        "name": "Little Liscomb Lake Wilcox Prospect",
        "jurisdiction": "NS",
        "status": "NULL",
        "commodity": "AU",
        "mineType": "Underground",
        "latitude": 45.2472501,
        "longitude": -62.45087375
      }
    },
    {
      "type": "Feature",
      "geometry": {
        "type": "Point",
        "coordinates": [
          -64.75621803,
          45.30843724
        ]
      },
      "properties": {
        "name": "Colonial Copper Company Cape D'Or No.1 Prospect ",
        "jurisdiction": "NS",
        "status": "NULL",
        "commodity": "CU",
        "mineType": "Underground",
        "latitude": 45.30843724,
        "longitude": -64.75621803
      }
    },
    {
      "type": "Feature",
      "geometry": {
        "type": "Point",
        "coordinates": [
          -64.73705061,
          45.31279911
        ]
      },
      "properties": {
        "name": "Colonial Copper Company Hanway Mine",
        "jurisdiction": "NS",
        "status": "NULL",
        "commodity": "CU",
        "mineType": "Underground",
        "latitude": 45.31279911,
        "longitude": -64.73705061
      }
    },
    {
      "type": "Feature",
      "geometry": {
        "type": "Point",
        "coordinates": [
          -62.92117358,
          45.06221718
        ]
      },
      "properties": {
        "name": "Baltimore & Nova Scotia Mining Company Lake Mine",
        "jurisdiction": "NS",
        "status": "NULL",
        "commodity": "AU",
        "mineType": "Underground",
        "latitude": 45.06221718,
        "longitude": -62.92117358
      }
    },
    {
      "type": "Feature",
      "geometry": {
        "type": "Point",
        "coordinates": [
          -62.94098086,
          45.05695406
        ]
      },
      "properties": {
        "name": "Caffrey Gold Mining Company Mine",
        "jurisdiction": "NS",
        "status": "NULL",
        "commodity": "AU",
        "mineType": "Underground",
        "latitude": 45.05695406,
        "longitude": -62.94098086
      }
    },
    {
      "type": "Feature",
      "geometry": {
        "type": "Point",
        "coordinates": [
          -62.93907175,
          45.06076083
        ]
      },
      "properties": {
        "name": "Caribou Gold Mines Ltd. West Ross Mine",
        "jurisdiction": "NS",
        "status": "NULL",
        "commodity": "AU",
        "mineType": "Underground",
        "latitude": 45.06076083,
        "longitude": -62.93907175
      }
    },
    {
      "type": "Feature",
      "geometry": {
        "type": "Point",
        "coordinates": [
          -62.94874441,
          45.05297899
        ]
      },
      "properties": {
        "name": "Caribou Gold Mining Company Dixon Mine",
        "jurisdiction": "NS",
        "status": "NULL",
        "commodity": "AU",
        "mineType": "Underground",
        "latitude": 45.05297899,
        "longitude": -62.94874441
      }
    },
    {
      "type": "Feature",
      "geometry": {
        "type": "Point",
        "coordinates": [
          -62.94150005,
          45.05845763
        ]
      },
      "properties": {
        "name": "Consolidated Mining & Smelting Company of Canada Ltd. (Antioch Resources Ltd.) Holman Mine",
        "jurisdiction": "NS",
        "status": "NULL",
        "commodity": "AU",
        "mineType": "Underground",
        "latitude": 45.05845763,
        "longitude": -62.94150005
      }
    },
    {
      "type": "Feature",
      "geometry": {
        "type": "Point",
        "coordinates": [
          -62.94656485,
          45.06149373
        ]
      },
      "properties": {
        "name": "Elk Gold Mining Company Bell Mine",
        "jurisdiction": "NS",
        "status": "NULL",
        "commodity": "AU",
        "mineType": "Underground",
        "latitude": 45.06149373,
        "longitude": -62.94656485
      }
    },
    {
      "type": "Feature",
      "geometry": {
        "type": "Point",
        "coordinates": [
          -62.92004146,
          45.06342264
        ]
      },
      "properties": {
        "name": "Guffey-Jennings Gold Mining Company Lake Mine",
        "jurisdiction": "NS",
        "status": "NULL",
        "commodity": "AU",
        "mineType": "Underground",
        "latitude": 45.06342264,
        "longitude": -62.92004146
      }
    },
    {
      "type": "Feature",
      "geometry": {
        "type": "Point",
        "coordinates": [
          -62.93804263,
          45.06104834
        ]
      },
      "properties": {
        "name": "Hilchey Mining Company Munroe Mine",
        "jurisdiction": "NS",
        "status": "NULL",
        "commodity": "AU",
        "mineType": "Underground",
        "latitude": 45.06104834,
        "longitude": -62.93804263
      }
    },
    {
      "type": "Feature",
      "geometry": {
        "type": "Point",
        "coordinates": [
          -62.93781443,
          45.06066114
        ]
      },
      "properties": {
        "name": "Nova Scotia Gold Mines Ltd. East Holman Mine",
        "jurisdiction": "NS",
        "status": "NULL",
        "commodity": "AU",
        "mineType": "Underground",
        "latitude": 45.06066114,
        "longitude": -62.93781443
      }
    },
    {
      "type": "Feature",
      "geometry": {
        "type": "Point",
        "coordinates": [
          -62.93456665,
          45.05736465
        ]
      },
      "properties": {
        "name": "Truro Gold Mining Company Mine",
        "jurisdiction": "NS",
        "status": "NULL",
        "commodity": "AU",
        "mineType": "Underground",
        "latitude": 45.05736465,
        "longitude": -62.93456665
      }
    },
    {
      "type": "Feature",
      "geometry": {
        "type": "Point",
        "coordinates": [
          -62.94691219,
          45.05674093
        ]
      },
      "properties": {
        "name": "Caribou Gold Mining Company Damos Touquoy Prospect",
        "jurisdiction": "NS",
        "status": "NULL",
        "commodity": "AU",
        "mineType": "Underground",
        "latitude": 45.05674093,
        "longitude": -62.94691219
      }
    },
    {
      "type": "Feature",
      "geometry": {
        "type": "Point",
        "coordinates": [
          -65.93235864,
          44.00454731
        ]
      },
      "properties": {
        "name": "Carleton Gold Mining Company Hatfield & Uhlman Mine",
        "jurisdiction": "NS",
        "status": "NULL",
        "commodity": "AU",
        "mineType": "Underground",
        "latitude": 44.00454731,
        "longitude": -65.93235864
      }
    },
    {
      "type": "Feature",
      "geometry": {
        "type": "Point",
        "coordinates": [
          -63.84098684,
          45.05255856
        ]
      },
      "properties": {
        "name": "Central Rawdon Consolidated Mines Ltd. Mine",
        "jurisdiction": "NS",
        "status": "NULL",
        "commodity": "AU",
        "mineType": "Underground",
        "latitude": 45.05255856,
        "longitude": -63.84098684
      }
    },
    {
      "type": "Feature",
      "geometry": {
        "type": "Point",
        "coordinates": [
          -63.81030659,
          45.04548887
        ]
      },
      "properties": {
        "name": "Hants Gold Mines Ltd. Carpenter Prospect",
        "jurisdiction": "NS",
        "status": "NULL",
        "commodity": "AU",
        "mineType": "Underground",
        "latitude": 45.04548887,
        "longitude": -63.81030659
      }
    },
    {
      "type": "Feature",
      "geometry": {
        "type": "Point",
        "coordinates": [
          -63.84336045,
          45.04815715
        ]
      },
      "properties": {
        "name": "Northup-Dimock Gold Mining Company Mine",
        "jurisdiction": "NS",
        "status": "NULL",
        "commodity": "AU",
        "mineType": "Underground",
        "latitude": 45.04815715,
        "longitude": -63.84336045
      }
    },
    {
      "type": "Feature",
      "geometry": {
        "type": "Point",
        "coordinates": [
          -63.83991841,
          45.0559151
        ]
      },
      "properties": {
        "name": "Central Rawdon Mining & Development Company Tunnel",
        "jurisdiction": "NS",
        "status": "NULL",
        "commodity": "AU",
        "mineType": "Underground",
        "latitude": 45.0559151,
        "longitude": -63.83991841
      }
    },
    {
      "type": "Feature",
      "geometry": {
        "type": "Point",
        "coordinates": [
          -60.77248323,
          45.69306533
        ]
      },
      "properties": {
        "name": "Robertson Cove Micmac Mine",
        "jurisdiction": "NS",
        "status": "NULL",
        "commodity": "FE",
        "mineType": "Underground",
        "latitude": 45.69306533,
        "longitude": -60.77248323
      }
    },
    {
      "type": "Feature",
      "geometry": {
        "type": "Point",
        "coordinates": [
          -60.91960364,
          46.61054425
        ]
      },
      "properties": {
        "name": "Richfield Mining Company Iron Cap Prospect",
        "jurisdiction": "NS",
        "status": "NULL",
        "commodity": "AU",
        "mineType": "Underground",
        "latitude": 46.61054425,
        "longitude": -60.91960364
      }
    },
    {
      "type": "Feature",
      "geometry": {
        "type": "Point",
        "coordinates": [
          -60.92407558,
          46.62372007
        ]
      },
      "properties": {
        "name": "Cheticamp Gold Mining Company Faribault Brook Lead Prospect",
        "jurisdiction": "NS",
        "status": "NULL",
        "commodity": "PB",
        "mineType": "Underground",
        "latitude": 46.62372007,
        "longitude": -60.92407558
      }
    },
    {
      "type": "Feature",
      "geometry": {
        "type": "Point",
        "coordinates": [
          -60.95605883,
          46.68527767
        ]
      },
      "properties": {
        "name": "Eastern Milling Company Cap Rouge Prospect",
        "jurisdiction": "NS",
        "status": "NULL",
        "commodity": "BA",
        "mineType": "Underground",
        "latitude": 46.68527767,
        "longitude": -60.95605883
      }
    },
    {
      "type": "Feature",
      "geometry": {
        "type": "Point",
        "coordinates": [
          -64.20782216,
          45.73545722
        ]
      },
      "properties": {
        "name": "Cumberland Coal Mining Company Colliery",
        "jurisdiction": "NS",
        "status": "NULL",
        "commodity": "CL",
        "mineType": "Underground",
        "latitude": 45.73545722,
        "longitude": -64.20782216
      }
    },
    {
      "type": "Feature",
      "geometry": {
        "type": "Point",
        "coordinates": [
          -64.22594108,
          45.73114184
        ]
      },
      "properties": {
        "name": "Fife & Taylor New Chignecto Colliery",
        "jurisdiction": "NS",
        "status": "NULL",
        "commodity": "CL",
        "mineType": "Underground",
        "latitude": 45.73114184,
        "longitude": -64.22594108
      }
    },
    {
      "type": "Feature",
      "geometry": {
        "type": "Point",
        "coordinates": [
          -64.21965604,
          45.73349532
        ]
      },
      "properties": {
        "name": "G.N. Field Slope",
        "jurisdiction": "NS",
        "status": "NULL",
        "commodity": "CL",
        "mineType": "Underground",
        "latitude": 45.73349532,
        "longitude": -64.21965604
      }
    },
    {
      "type": "Feature",
      "geometry": {
        "type": "Point",
        "coordinates": [
          -64.21869934,
          45.73382956
        ]
      },
      "properties": {
        "name": "Great Northern Coal Company Colliery",
        "jurisdiction": "NS",
        "status": "NULL",
        "commodity": "CL",
        "mineType": "Underground",
        "latitude": 45.73382956,
        "longitude": -64.21869934
      }
    },
    {
      "type": "Feature",
      "geometry": {
        "type": "Point",
        "coordinates": [
          -64.22473021,
          45.73160487
        ]
      },
      "properties": {
        "name": "John McKinnon & Herbert Quinn (1934) Slope",
        "jurisdiction": "NS",
        "status": "NULL",
        "commodity": "CL",
        "mineType": "Underground",
        "latitude": 45.73160487,
        "longitude": -64.22473021
      }
    },
    {
      "type": "Feature",
      "geometry": {
        "type": "Point",
        "coordinates": [
          -64.20736032,
          45.7354981
        ]
      },
      "properties": {
        "name": "\"Maritime Coal",
        "jurisdiction": "NS",
        "status": " Railway & Power Company Chignecto Colliery\"",
        "commodity": "NULL",
        "mineType": "NULL",
        "latitude": 45.7354981,
        "longitude": -64.20736032
      }
    },
    {
      "type": "Feature",
      "geometry": {
        "type": "Point",
        "coordinates": [
          -64.19485419,
          45.73430648
        ]
      },
      "properties": {
        "name": "\"Maritime Coal",
        "jurisdiction": "NS",
        "status": " Railway & Power Company Chignecto No.3 Slope\"",
        "commodity": "NULL",
        "mineType": "NULL",
        "latitude": 45.73430648,
        "longitude": -64.19485419
      }
    },
    {
      "type": "Feature",
      "geometry": {
        "type": "Point",
        "coordinates": [
          -64.19284091,
          45.73392248
        ]
      },
      "properties": {
        "name": "\"Maritime Coal",
        "jurisdiction": "NS",
        "status": " Railway & Power Company Chignecto No.4 Slope\"",
        "commodity": "NULL",
        "mineType": "NULL",
        "latitude": 45.73392248,
        "longitude": -64.19284091
      }
    },
    {
      "type": "Feature",
      "geometry": {
        "type": "Point",
        "coordinates": [
          -64.19023599,
          45.73351761
        ]
      },
      "properties": {
        "name": "\"Maritime Coal",
        "jurisdiction": "NS",
        "status": " Railway & Power Company Chignecto No.5 Slope\"",
        "commodity": "NULL",
        "mineType": "NULL",
        "latitude": 45.73351761,
        "longitude": -64.19023599
      }
    },
    {
      "type": "Feature",
      "geometry": {
        "type": "Point",
        "coordinates": [
          -64.21357839,
          45.73476616
        ]
      },
      "properties": {
        "name": "Scotia Coal Company Slope",
        "jurisdiction": "NS",
        "status": "NULL",
        "commodity": "CL",
        "mineType": "Underground",
        "latitude": 45.73476616,
        "longitude": -64.21357839
      }
    },
    {
      "type": "Feature",
      "geometry": {
        "type": "Point",
        "coordinates": [
          -64.22235865,
          45.73247634
        ]
      },
      "properties": {
        "name": "Jones & McKinnon (1916) Slope",
        "jurisdiction": "NS",
        "status": "NULL",
        "commodity": "CL",
        "mineType": "Underground",
        "latitude": 45.73247634,
        "longitude": -64.22235865
      }
    },
    {
      "type": "Feature",
      "geometry": {
        "type": "Point",
        "coordinates": [
          -61.17110277,
          46.39091908
        ]
      },
      "properties": {
        "name": "Chimney Corner Coal Company Slope",
        "jurisdiction": "NS",
        "status": "NULL",
        "commodity": "CL",
        "mineType": "Underground",
        "latitude": 46.39091908,
        "longitude": -61.17110277
      }
    },
    {
      "type": "Feature",
      "geometry": {
        "type": "Point",
        "coordinates": [
          -61.17078235,
          46.39272294
        ]
      },
      "properties": {
        "name": "Old Chimney Corner Beach Level",
        "jurisdiction": "NS",
        "status": "NULL",
        "commodity": "CL",
        "mineType": "Underground",
        "latitude": 46.39272294,
        "longitude": -61.17078235
      }
    },
    {
      "type": "Feature",
      "geometry": {
        "type": "Point",
        "coordinates": [
          -61.17336895,
          46.37835538
        ]
      },
      "properties": {
        "name": "Margaree Steamship Company Chimney Corner Prospect",
        "jurisdiction": "NS",
        "status": "NULL",
        "commodity": "CL",
        "mineType": "Underground",
        "latitude": 46.37835538,
        "longitude": -61.17336895
      }
    },
    {
      "type": "Feature",
      "geometry": {
        "type": "Point",
        "coordinates": [
          -62.91253718,
          44.73592125
        ]
      },
      "properties": {
        "name": "H.E. Hill Company Clam Harbour Prospect",
        "jurisdiction": "NS",
        "status": "NULL",
        "commodity": "AU",
        "mineType": "Underground",
        "latitude": 44.73592125,
        "longitude": -62.91253718
      }
    },
    {
      "type": "Feature",
      "geometry": {
        "type": "Point",
        "coordinates": [
          -60.46042178,
          46.66018086
        ]
      },
      "properties": {
        "name": "Clyburn Brook H.M. Rogers Franey Prospect",
        "jurisdiction": "NS",
        "status": "NULL",
        "commodity": "AU",
        "mineType": "Underground",
        "latitude": 46.66018086,
        "longitude": -60.46042178
      }
    },
    {
      "type": "Feature",
      "geometry": {
        "type": "Point",
        "coordinates": [
          -62.59321039,
          45.57312502
        ]
      },
      "properties": {
        "name": "Greenwood Coal Mining Company Ltd. Acadia No.6 (Milford Colliery) Slope",
        "jurisdiction": "NS",
        "status": "NULL",
        "commodity": "CL",
        "mineType": "Underground",
        "latitude": 45.57312502,
        "longitude": -62.59321039
      }
    },
    {
      "type": "Feature",
      "geometry": {
        "type": "Point",
        "coordinates": [
          -62.58241038,
          45.5691076
        ]
      },
      "properties": {
        "name": "Greenwood Coal Mining Company Ltd. Coalburn Colliery",
        "jurisdiction": "NS",
        "status": "NULL",
        "commodity": "CL",
        "mineType": "Underground",
        "latitude": 45.5691076,
        "longitude": -62.58241038
      }
    },
    {
      "type": "Feature",
      "geometry": {
        "type": "Point",
        "coordinates": [
          -62.59140467,
          45.56940115
        ]
      },
      "properties": {
        "name": "Merigomish Company George McKay Slope",
        "jurisdiction": "NS",
        "status": "NULL",
        "commodity": "CL",
        "mineType": "Underground",
        "latitude": 45.56940115,
        "longitude": -62.59140467
      }
    },
    {
      "type": "Feature",
      "geometry": {
        "type": "Point",
        "coordinates": [
          -62.58573906,
          45.56956077
        ]
      },
      "properties": {
        "name": "Milford Mining Company Acadia No.4 Colliery",
        "jurisdiction": "NS",
        "status": "NULL",
        "commodity": "CL",
        "mineType": "Underground",
        "latitude": 45.56956077,
        "longitude": -62.58573906
      }
    },
    {
      "type": "Feature",
      "geometry": {
        "type": "Point",
        "coordinates": [
          -62.58487987,
          45.56615526
        ]
      },
      "properties": {
        "name": "Nova Scotia Steel & Coal Company Marsh Mine",
        "jurisdiction": "NS",
        "status": "NULL",
        "commodity": "CL",
        "mineType": "Underground",
        "latitude": 45.56615526,
        "longitude": -62.58487987
      }
    },
    {
      "type": "Feature",
      "geometry": {
        "type": "Point",
        "coordinates": [
          -62.58731805,
          45.57094364
        ]
      },
      "properties": {
        "name": "Pictou Mining Company Marsh Pit",
        "jurisdiction": "NS",
        "status": "NULL",
        "commodity": "CL",
        "mineType": "Underground",
        "latitude": 45.57094364,
        "longitude": -62.58731805
      }
    },
    {
      "type": "Feature",
      "geometry": {
        "type": "Point",
        "coordinates": [
          -62.01126757,
          45.24896213
        ]
      },
      "properties": {
        "name": "Cochrane Hill Ross Mine",
        "jurisdiction": "NS",
        "status": "NULL",
        "commodity": "AU",
        "mineType": "Underground",
        "latitude": 45.24896213,
        "longitude": -62.01126757
      }
    },
    {
      "type": "Feature",
      "geometry": {
        "type": "Point",
        "coordinates": [
          -62.01288602,
          45.24895813
        ]
      },
      "properties": {
        "name": "Northumberland Mines Ltd. (Novagold Resources Inc.) Cochrane Hill Mine",
        "jurisdiction": "NS",
        "status": "NULL",
        "commodity": "AU",
        "mineType": "Underground",
        "latitude": 45.24895813,
        "longitude": -62.01288602
      }
    },
    {
      "type": "Feature",
      "geometry": {
        "type": "Point",
        "coordinates": [
          -62.01537509,
          45.24871857
        ]
      },
      "properties": {
        "name": "Novamac Mines & Power Corporation Ltd. Mitchell Mine",
        "jurisdiction": "NS",
        "status": "NULL",
        "commodity": "AU",
        "mineType": "Underground",
        "latitude": 45.24871857,
        "longitude": -62.01537509
      }
    },
    {
      "type": "Feature",
      "geometry": {
        "type": "Point",
        "coordinates": [
          -63.30763945,
          45.07983367
        ]
      },
      "properties": {
        "name": "Corbett's Gays River No.3 Mine",
        "jurisdiction": "NS",
        "status": "NULL",
        "commodity": "AU",
        "mineType": "Underground",
        "latitude": 45.07983367,
        "longitude": -63.30763945
      }
    },
    {
      "type": "Feature",
      "geometry": {
        "type": "Point",
        "coordinates": [
          -63.3110638,
          45.07869917
        ]
      },
      "properties": {
        "name": "Nova Scotia Gold Mining Company McDonald (R.R. McLeod) Gays River Mine",
        "jurisdiction": "NS",
        "status": "NULL",
        "commodity": "AU",
        "mineType": "Underground",
        "latitude": 45.07869917,
        "longitude": -63.3110638
      }
    },
    {
      "type": "Feature",
      "geometry": {
        "type": "Point",
        "coordinates": [
          -62.08474269,
          45.39411055
        ]
      },
      "properties": {
        "name": "College Grant Copper Prospect",
        "jurisdiction": "NS",
        "status": "NULL",
        "commodity": "CU",
        "mineType": "Underground",
        "latitude": 45.39411055,
        "longitude": -62.08474269
      }
    },
    {
      "type": "Feature",
      "geometry": {
        "type": "Point",
        "coordinates": [
          -61.97947342,
          45.40528021
        ]
      },
      "properties": {
        "name": "Lake Copper Company Mining Company Ltd. Copper Lake Mine",
        "jurisdiction": "NS",
        "status": "NULL",
        "commodity": "CU",
        "mineType": "Underground",
        "latitude": 45.40528021,
        "longitude": -61.97947342
      }
    },
    {
      "type": "Feature",
      "geometry": {
        "type": "Point",
        "coordinates": [
          -63.44263099,
          45.48094654
        ]
      },
      "properties": {
        "name": "Colchester Coal & Railway Company Cottam Settlement Mine",
        "jurisdiction": "NS",
        "status": "NULL",
        "commodity": "CL",
        "mineType": "Underground",
        "latitude": 45.48094654,
        "longitude": -63.44263099
      }
    },
    {
      "type": "Feature",
      "geometry": {
        "type": "Point",
        "coordinates": [
          -63.44133519,
          45.4805015
        ]
      },
      "properties": {
        "name": "John D. Betts Cottam Settlement Mine",
        "jurisdiction": "NS",
        "status": "NULL",
        "commodity": "CL",
        "mineType": "Underground",
        "latitude": 45.4805015,
        "longitude": -63.44133519
      }
    },
    {
      "type": "Feature",
      "geometry": {
        "type": "Point",
        "coordinates": [
          -61.81236309,
          45.25792268
        ]
      },
      "properties": {
        "name": "Antigonish Gold Mining Company Country Harbour Mine",
        "jurisdiction": "NS",
        "status": "NULL",
        "commodity": "AU",
        "mineType": "Underground",
        "latitude": 45.25792268,
        "longitude": -61.81236309
      }
    },
    {
      "type": "Feature",
      "geometry": {
        "type": "Point",
        "coordinates": [
          -61.81276469,
          45.25638759
        ]
      },
      "properties": {
        "name": "Country Harbour Gold Mining Company Prince Belt Mine",
        "jurisdiction": "NS",
        "status": "NULL",
        "commodity": "AU",
        "mineType": "Underground",
        "latitude": 45.25638759,
        "longitude": -61.81276469
      }
    },
    {
      "type": "Feature",
      "geometry": {
        "type": "Point",
        "coordinates": [
          -61.8121201,
          45.25612885
        ]
      },
      "properties": {
        "name": "Maritime Minerals Limited A.C. Blair (Hayne) Country Harbour Mines Tunnel",
        "jurisdiction": "NS",
        "status": "NULL",
        "commodity": "AU",
        "mineType": "Underground",
        "latitude": 45.25612885,
        "longitude": -61.8121201
      }
    },
    {
      "type": "Feature",
      "geometry": {
        "type": "Point",
        "coordinates": [
          -61.81394821,
          45.26075663
        ]
      },
      "properties": {
        "name": "Stuart Development Company Country Harbour North Mine",
        "jurisdiction": "NS",
        "status": "NULL",
        "commodity": "AU",
        "mineType": "Underground",
        "latitude": 45.26075663,
        "longitude": -61.81394821
      }
    },
    {
      "type": "Feature",
      "geometry": {
        "type": "Point",
        "coordinates": [
          -61.80887016,
          45.24698544
        ]
      },
      "properties": {
        "name": "Sydney Gold Mining Company McDonald (Shanahan) Prospect",
        "jurisdiction": "NS",
        "status": "NULL",
        "commodity": "AU",
        "mineType": "Underground",
        "latitude": 45.24698544,
        "longitude": -61.80887016
      }
    },
    {
      "type": "Feature",
      "geometry": {
        "type": "Point",
        "coordinates": [
          -63.46113592,
          44.62159312
        ]
      },
      "properties": {
        "name": "Evangeline Gold Mining & Milling Company (Cow Bay Gold Mining Company) Ltd. Mine",
        "jurisdiction": "NS",
        "status": "NULL",
        "commodity": "AU",
        "mineType": "Underground",
        "latitude": 44.62159312,
        "longitude": -63.46113592
      }
    },
    {
      "type": "Feature",
      "geometry": {
        "type": "Point",
        "coordinates": [
          -60.35810396,
          46.08824868
        ]
      },
      "properties": {
        "name": "Coxheath Copper Mining Company Coxheath Mine",
        "jurisdiction": "NS",
        "status": "NULL",
        "commodity": "CU",
        "mineType": "Underground",
        "latitude": 46.08824868,
        "longitude": -60.35810396
      }
    },
    {
      "type": "Feature",
      "geometry": {
        "type": "Point",
        "coordinates": [
          -62.05440685,
          45.24414258
        ]
      },
      "properties": {
        "name": "Old Provincial Mining Company Hardman Mine",
        "jurisdiction": "NS",
        "status": "NULL",
        "commodity": "AU",
        "mineType": "Underground",
        "latitude": 45.24414258,
        "longitude": -62.05440685
      }
    },
    {
      "type": "Feature",
      "geometry": {
        "type": "Point",
        "coordinates": [
          -60.10541202,
          45.87872496
        ]
      },
      "properties": {
        "name": "Coxheath Copper Mining (Cape Breton Copper) Company Eagle Head Mine",
        "jurisdiction": "NS",
        "status": "NULL",
        "commodity": "CU",
        "mineType": "Underground",
        "latitude": 45.87872496,
        "longitude": -60.10541202
      }
    },
    {
      "type": "Feature",
      "geometry": {
        "type": "Point",
        "coordinates": [
          -61.30648452,
          45.87807162
        ]
      },
      "properties": {
        "name": "River Denys Sand & Clay Company Ltd. Diogenes Brook Mine",
        "jurisdiction": "NS",
        "status": "NULL",
        "commodity": "SI",
        "mineType": "Underground",
        "latitude": 45.87807162,
        "longitude": -61.30648452
      }
    },
    {
      "type": "Feature",
      "geometry": {
        "type": "Point",
        "coordinates": [
          -61.66363807,
          45.20470005
        ]
      },
      "properties": {
        "name": "Dolliver Mountain Mining Company Upper Seal Harbour Mine",
        "jurisdiction": "NS",
        "status": "NULL",
        "commodity": "AU",
        "mineType": "Underground",
        "latitude": 45.20470005,
        "longitude": -61.66363807
      }
    },
    {
      "type": "Feature",
      "geometry": {
        "type": "Point",
        "coordinates": [
          -61.66704232,
          45.2050549
        ]
      },
      "properties": {
        "name": "Mineral Industries Ltd. Blacksmith Shop Dolliver Mountain Mine",
        "jurisdiction": "NS",
        "status": "NULL",
        "commodity": "AU",
        "mineType": "Underground",
        "latitude": 45.2050549,
        "longitude": -61.66704232
      }
    },
    {
      "type": "Feature",
      "geometry": {
        "type": "Point",
        "coordinates": [
          -60.01680767,
          46.21090155
        ]
      },
      "properties": {
        "name": "Dominion Coal Company Ltd. #1A Colliery",
        "jurisdiction": "NS",
        "status": "NULL",
        "commodity": "CL",
        "mineType": "Underground",
        "latitude": 46.21090155,
        "longitude": -60.01680767
      }
    },
    {
      "type": "Feature",
      "geometry": {
        "type": "Point",
        "coordinates": [
          -60.02251168,
          46.20323793
        ]
      },
      "properties": {
        "name": "H. Mitchell Old Bridgeport Colliery",
        "jurisdiction": "NS",
        "status": "NULL",
        "commodity": "CL",
        "mineType": "Underground",
        "latitude": 46.20323793,
        "longitude": -60.02251168
      }
    },
    {
      "type": "Feature",
      "geometry": {
        "type": "Point",
        "coordinates": [
          -59.87281211,
          46.18346824
        ]
      },
      "properties": {
        "name": "Dominion Coal Company Ltd. #6 Colliery",
        "jurisdiction": "NS",
        "status": "NULL",
        "commodity": "CL",
        "mineType": "Underground",
        "latitude": 46.18346824,
        "longitude": -59.87281211
      }
    },
    {
      "type": "Feature",
      "geometry": {
        "type": "Point",
        "coordinates": [
          -59.85234129,
          46.18069172
        ]
      },
      "properties": {
        "name": "Schooner Pond Mining Company Ltd. Slope",
        "jurisdiction": "NS",
        "status": "NULL",
        "commodity": "CL",
        "mineType": "Underground",
        "latitude": 46.18069172,
        "longitude": -59.85234129
      }
    },
    {
      "type": "Feature",
      "geometry": {
        "type": "Point",
        "coordinates": [
          -62.40432153,
          44.95905933
        ]
      },
      "properties": {
        "name": "Consolidated Mining & Smelting Company of Canada Ltd. Salmon River Prospect",
        "jurisdiction": "NS",
        "status": "NULL",
        "commodity": "AU",
        "mineType": "Underground",
        "latitude": 44.95905933,
        "longitude": -62.40432153
      }
    },
    {
      "type": "Feature",
      "geometry": {
        "type": "Point",
        "coordinates": [
          -62.39221398,
          44.97099518
        ]
      },
      "properties": {
        "name": "Crown Reserve Gold Mines Ltd. Salmon River Mine",
        "jurisdiction": "NS",
        "status": "NULL",
        "commodity": "AU",
        "mineType": "Underground",
        "latitude": 44.97099518,
        "longitude": -62.39221398
      }
    },
    {
      "type": "Feature",
      "geometry": {
        "type": "Point",
        "coordinates": [
          -62.38510152,
          44.96251325
        ]
      },
      "properties": {
        "name": "Lake Eagle Gold Mining Company Mine",
        "jurisdiction": "NS",
        "status": "NULL",
        "commodity": "AU",
        "mineType": "Underground",
        "latitude": 44.96251325,
        "longitude": -62.38510152
      }
    },
    {
      "type": "Feature",
      "geometry": {
        "type": "Point",
        "coordinates": [
          -62.40660565,
          44.95887318
        ]
      },
      "properties": {
        "name": "Eagle Mining Syndicate West Mine",
        "jurisdiction": "NS",
        "status": "NULL",
        "commodity": "AU",
        "mineType": "Underground",
        "latitude": 44.95887318,
        "longitude": -62.40660565
      }
    },
    {
      "type": "Feature",
      "geometry": {
        "type": "Point",
        "coordinates": [
          -62.38326256,
          44.97201842
        ]
      },
      "properties": {
        "name": "Maple Leaf Gold Mining Company (Bluenose Ventures Syndicate) Salmon River Mine",
        "jurisdiction": "NS",
        "status": "NULL",
        "commodity": "AU",
        "mineType": "Underground",
        "latitude": 44.97201842,
        "longitude": -62.38326256
      }
    },
    {
      "type": "Feature",
      "geometry": {
        "type": "Point",
        "coordinates": [
          -62.39832473,
          44.96024316
        ]
      },
      "properties": {
        "name": "Montreal-London Gold & Silver Development Company (Dufferin Gold Mining Company) Mine",
        "jurisdiction": "NS",
        "status": "NULL",
        "commodity": "AU",
        "mineType": "Underground",
        "latitude": 44.96024316,
        "longitude": -62.39832473
      }
    },
    {
      "type": "Feature",
      "geometry": {
        "type": "Point",
        "coordinates": [
          -63.20533963,
          44.73261033
        ]
      },
      "properties": {
        "name": "Alpha Gold Syndicate Lake Catcha Mine",
        "jurisdiction": "NS",
        "status": "NULL",
        "commodity": "AU",
        "mineType": "Underground",
        "latitude": 44.73261033,
        "longitude": -63.20533963
      }
    },
    {
      "type": "Feature",
      "geometry": {
        "type": "Point",
        "coordinates": [
          -63.20286587,
          44.73306486
        ]
      },
      "properties": {
        "name": "F.W. Hanright & Co. Lake Catcha Sheba Lead Mine",
        "jurisdiction": "NS",
        "status": "NULL",
        "commodity": "AU",
        "mineType": "Underground",
        "latitude": 44.73306486,
        "longitude": -63.20286587
      }
    },
    {
      "type": "Feature",
      "geometry": {
        "type": "Point",
        "coordinates": [
          -63.20585,
          44.74119764
        ]
      },
      "properties": {
        "name": "J.B. Neily & Company Lake Catcha North Mine",
        "jurisdiction": "NS",
        "status": "NULL",
        "commodity": "AU",
        "mineType": "Underground",
        "latitude": 44.74119764,
        "longitude": -63.20585
      }
    },
    {
      "type": "Feature",
      "geometry": {
        "type": "Point",
        "coordinates": [
          -63.20334326,
          44.73234383
        ]
      },
      "properties": {
        "name": "Lake Catcha Consolidated Mining Company Mine",
        "jurisdiction": "NS",
        "status": "NULL",
        "commodity": "AU",
        "mineType": "Underground",
        "latitude": 44.73234383,
        "longitude": -63.20334326
      }
    },
    {
      "type": "Feature",
      "geometry": {
        "type": "Point",
        "coordinates": [
          -63.1901912,
          44.74236809
        ]
      },
      "properties": {
        "name": "A.C. Cogswell Mine",
        "jurisdiction": "NS",
        "status": "NULL",
        "commodity": "AU",
        "mineType": "Underground",
        "latitude": 44.74236809,
        "longitude": -63.1901912
      }
    },
    {
      "type": "Feature",
      "geometry": {
        "type": "Point",
        "coordinates": [
          -63.19977854,
          44.73505982
        ]
      },
      "properties": {
        "name": "Lake Catcha Tailings Company East Chezzetcook Mine",
        "jurisdiction": "NS",
        "status": "NULL",
        "commodity": "AU",
        "mineType": "Underground",
        "latitude": 44.73505982,
        "longitude": -63.19977854
      }
    },